loggingTime,loggingSample,locationTimestamp_since1970,locationLatitude,locationLongitude,locationAltitude,locationSpeed,locationSpeedAccuracy,locationCourse,locationCourseAccuracy,locationVerticalAccuracy,locationHorizontalAccuracy,locationFloor,locationHeadingTimestamp_since1970,locationHeadingX,locationHeadingY,locationHeadingZ,locationTrueHeading,locationMagneticHeading,locationHeadingAccuracy,accelerometerTimestamp_sinceReboot,accelerometerAccelerationX,accelerometerAccelerationY,accelerometerAccelerationZ,gyroTimestamp_sinceReboot,gyroRotationX,gyroRotationY,gyroRotationZ,magnetometerTimestamp_sinceReboot,magnetometerX,magnetometerY,magnetometerZ,motionTimestamp_sinceReboot,motionYaw,motionRoll,motionPitch,motionRotationRateX,motionRotationRateY,motionRotationRateZ,motionUserAccelerationX,motionUserAccelerationY,motionUserAccelerationZ,motionAttitudeReferenceFrame,motionQuaternionX,motionQuaternionY,motionQuaternionZ,motionQuaternionW,motionGravityX,motionGravityY,motionGravityZ,motionMagneticFieldX,motionMagneticFieldY,motionMagneticFieldZ,motionHeading,motionMagneticFieldCalibrationAccuracy,activityTimestamp_sinceReboot,activity,activityActivityConfidence,activityActivityStartDate,pedometerStartDate,pedometerNumberofSteps,pedometerAverageActivePace,pedometerCurrentPace,pedometerCurrentCadence,pedometerDistance,pedometerFloorAscended,pedometerFloorDescended,pedometerEndDate,altimeterTimestamp_sinceReboot,altimeterReset,altimeterRelativeAltitude,altimeterPressure,IP_Timestamp_since1970,IP_en0,IP_pdp_ip0,deviceID,deviceOrientationTimeStamp_since1970,deviceOrientation,batteryTimeStamp_since1970,batteryState,batteryLevel,label
1676669838.955268,1,1676669835.678652,34.21412558773279,-118.3864093768145,243.9025,-1,-1,-1,-1,4.190784454345703,7.856033639443082,-1,1676669838.950505,17.32965850830078,14.90431213378906,-35.38418579101562,350.6524658203125,339.013671875,12.67826557159424,1677557.394807542,0.2288818359375,-0.2365264892578125,-0.9491729736328125,1677557.394807542,0.05736928433179855,-0.3618303835391998,-0.1244077086448669,1677557.377325542,-119.2085571289062,103.3931427001953,-326.6178894042969,1677557.358707542,0.09369901184793798,0.2393769424642536,0.2281641069772822,-0.02966382727026939,-0.06271062791347504,-0.04325561225414276,-0.009456023573875427,0.009392768144607544,0.003925323486328125,2,0.1073407856583307,0.123789605771407,0.059772364928528,0.9846732382355217,0.2309526056051254,-0.226189598441124,-0.9463081955909729,17.53766632080078,15.02346038818359,-35.72930908203125,-1,2,1677557.308914542,2,0,1676669838.8634,0,0,0,0,0,0,0,0,0,1677554.913251,0,0.06077576,98.57774,1676669838.938333,167772201,182416158,0,0,1,1676669838.911374,1,0.4,1
1676669839.014831,2,1676669835.678652,34.21412558773279,-118.3864093768145,243.9025,-1,-1,-1,-1,4.190784454345703,7.856033639443082,-1,1676669839.010246,16.80671691894531,15.43413543701172,-36.34619140625,351.3263244628906,339.6875305175781,12.67828750610352,1677557.454559542,0.197265625,-0.23223876953125,-0.95538330078125,1677557.454559542,-0.03695615381002426,-0.2641107439994812,-0.1078388467431068,1677557.437386542,-119.8766937255859,103.960205078125,-327.2685852050781,1677557.418459542,0.08629433290337356,0.2232500558559226,0.2290312476070778,0.06508722901344299,-0.4289188981056213,-0.1693556308746338,0.02009904384613037,-0.007493346929550171,0.002421736717224121,2,0.1086753294513452,0.1154588043401421,0.05530115139276198,0.9857994749185378,0.2156187146902084,-0.2270341813564301,-0.9497178792953491,17.21337890625,15.06331634521484,-35.67337036132812,-1,2,1677557.308914542,2,0,1676669838.8634,0,0,0,0,0,0,0,0,0,1677554.913251,0,0.06077576,98.57774,1676669838.938333,167772201,182416158,0,0,1,1676669838.911374,1,0.4,1
1676669839.074575,3,1676669835.678652,34.21412558773279,-118.3864093768145,243.9025,-1,-1,-1,-1,4.190784454345703,7.856033639443082,-1,1676669839.069649,15.88753509521484,15.15785980224609,-36.50283813476562,351.4644470214844,339.8256530761719,12.6783618927002,1677557.514311542,0.2025909423828125,-0.2056427001953125,-0.9730224609375,1677557.514311542,0.04347157850861549,0.1584682017564774,0.08362618833780289,1677557.497446542,-120.5962066650391,104.1889953613281,-326.8580017089844,1677557.478212542,0.0794806131488888,0.2078076281849983,0.226117857012111,-0.1186042577028275,-0.07564617693424225,-0.05589151009917259,-0.006467923521995544,-0.01353597640991211,-0.02155083417892456,2,0.1080268405836011,0.1074315121215254,0.05095522712287576,0.9870116888672158,0.2010632455348969,-0.2241958975791931,-0.9535773396492004,16.03945922851562,15.43788909912109,-36.66738891601562,-1,2,1677557.308914542,2,0,1676669838.8634,0,0,0,0,0,0,0,0,0,1677555.913827,0,0.07926941,98.57754,1676669838.938333,167772201,182416158,0,0,1,1676669838.911374,1,0.4,1
1676669839.134343,4,1676669835.678652,34.21412558773279,-118.3864093768145,243.9025,-1,-1,-1,-1,4.190784454345703,7.856033639443082,-1,1676669839.129831,16.57997894287109,15.32961273193359,-36.8035888671875,351.4525451660156,339.8137512207031,12.67846393585205,1677557.574064542,0.1766357421875,-0.2468719482421875,-0.966094970703125,1677557.574064542,-0.00449754623696208,-0.2799954414367676,0.07667533308267593,1677557.557510542,-120.7474517822266,103.7028503417969,-327.3895874023438,1677557.537964542,0.08003520546841311,0.211566892827737,0.2271379030054229,0.1859813332557678,0.03948508948087692,0.01469836756587029,-0.04811958968639374,-0.0303947776556015,-0.0372469425201416,2,0.1084043217529072,0.1093305392695627,0.05148299157092034,0.9867343663274142,0.2045984417200089,-0.2251898646354675,-0.9525906443595886,16.32984924316406,15.38285827636719,-36.14523315429688,-1,2,1677557.308914542,2,0,1676669838.8634,0,0,0,0,0,0,0,0,0,1677555.913827,0,0.07926941,98.57754,1676669838.938333,167772201,182416158,0,0,1,1676669838.911374,1,0.4,1
1676669839.193978,5,1676669835.678652,34.21412558773279,-118.3864093768145,243.9025,-1,-1,-1,-1,4.190784454345703,7.856033639443082,-1,1676669839.189154,15.62359619140625,15.320068359375,-36.68792724609375,351.257080078125,339.6182861328125,12.67853164672852,1677557.633816542,0.1774139404296875,-0.260345458984375,-0.925262451171875,1677557.633816542,-0.1302442848682404,-0.1252857446670532,0.01638136990368366,1677557.617570542,-120.9105072021484,104.0927886962891,-327.3385620117188,1677557.597716542,0.08209853709566885,0.2016925812180499,0.2306267301380072,-0.05106237530708313,-0.1404492855072021,0.1085969060659409,-0.01208625733852386,0.05659069120883942,0.07176989316940308,2,0.1102729194120096,0.1046203210767489,0.05213184163479889,0.9870039078316881,0.1950238645076752,-0.2285877019166946,-0.9537889361381531,16.06018829345703,15.40956878662109,-36.340576171875,-1,2,1677557.308914542,2,0,1676669838.8634,0,0,0,0,0,0,0,0,0,1677555.913827,0,0.07926941,98.57754,1676669838.938333,167772201,182416158,0,0,1,1676669838.911374,1,0.4,1
1676669839.253875,6,1676669835.678652,34.21412558773279,-118.3864093768145,243.9025,-1,-1,-1,-1,4.190784454345703,7.856033639443082,-1,1676669839.249372,15.45111846923828,15.60269165039062,-36.5755615234375,351.1222839355469,339.4834899902344,12.67861652374268,1677557.693568542,0.1781768798828125,-0.196441650390625,-0.9544525146484375,1677557.693568542,-0.2286337167024612,-0.1849056631326675,0.1289657056331635,1677557.677628542,-121.2443084716797,104.1194610595703,-327.9610900878906,1677557.657468542,0.08541354207545941,0.192912285626649,0.2240237435028725,-0.2418883442878723,-0.1563011109828949,0.01496255490928888,-0.03336276113986969,0.01159863173961639,0.02514708042144775,2,0.1070708373952795,0.1003658819794651,0.05298415445400645,0.9877526376182479,0.1869272142648697,-0.2221546024084091,-0.9569250345230103,15.50843048095703,15.24623107910156,-36.82028198242188,-1,2,1677557.308914542,2,0,1676669838.8634,0,0,0,0,0,0,0,0,0,1677555.913827,0,0.07926941,98.57754,1676669838.938333,167772201,182416158,0,0,1,1676669838.911374,1,0.4,1
1676669839.313542,7,1676669835.678652,34.21412558773279,-118.3864093768145,243.9025,-1,-1,-1,-1,4.190784454345703,7.856033639443082,-1,1676669839.308703,15.76708221435547,15.62179565429688,-36.60089111328125,349.9953002929688,338.3565063476562,12.67872047424316,1677557.753320542,0.2194976806640625,-0.1566009521484375,-1.017913818359375,1677557.753320542,-0.03295235708355904,0.2107774764299393,0.5855489373207092,1677557.737688542,-121.2319641113281,104.2907104492188,-327.50244140625,1677557.717221542,0.0938960879577956,0.1810425578765248,0.2125934161336055,-0.05867887660861015,-0.1097135245800018,0.2290592640638351,-0.006995275616645813,0.05772115290164948,-0.004064738750457764,2,0.1013273488076796,0.09474726205196494,0.05605518112613661,0.9887433630348751,0.1760016083717346,-0.2109956443309784,-0.9615114331245422,14.97665405273438,15.58605194091797,-36.60067749023438,-1,2,1677557.308914542,2,0,1676669838.8634,0,0,0,0,0,0,0,0,0,1677555.913827,0,0.07926941,98.57754,1676669838.938333,167772201,182416158,0,0,1,1676669838.911374,1,0.4,1
1676669839.373446,8,1676669839.172251,34.21416130780695,-118.3864208137508,246.5355,0,2.049374,-1,-1,10.61956061772579,18.74279267270661,-9999,1676669839.368783,16.24506378173828,15.31781768798828,-36.25482177734375,347.8229064941406,336.1841125488281,12.67885398864746,1677557.813073542,0.217071533203125,-0.18902587890625,-0.894256591796875,1677557.813073542,-0.2184343338012695,-0.03945233300328255,0.5724025368690491,1677557.797747542,-120.0847320556641,104.1921539306641,-327.2206420898438,1677557.776973542,0.1247539629924448,0.1835390241891473,0.2159768010599142,-0.1387607604265213,0.2090691775083542,0.6358643174171448,0.05088634788990021,0.01824153959751129,0.01305031776428223,2,0.1014371063379094,0.09762003951231953,0.07157035991371313,0.9874504629104923,0.1782701313495636,-0.2143016308546066,-0.960361659526825,16.19136810302734,15.65769958496094,-36.42108154296875,-1,2,1677557.308914542,2,0,1676669838.8634,0,0,0,0,0,0,0,0,0,1677555.913827,0,0.07926941,98.57754,1676669838.938333,167772201,182416158,0,0,1,1676669838.911374,1,0.4,1
1676669839.433279,9,1676669839.172251,34.21416130780695,-118.3864208137508,246.5355,0,2.049374,-1,-1,10.61956061772579,18.74279267270661,-9999,1676669839.428239,17.06602478027344,15.07470703125,-35.92291259765625,345.9541320800781,334.3153381347656,12.67899227142334,1677557.872825542,0.046142578125,-0.3072357177734375,-1.012741088867188,1677557.872825542,-0.4635940194129944,0.9351122975349426,-0.1765529364347458,1677557.857806542,-120.1532897949219,103.3848724365234,-327.1560363769531,1677557.836725542,0.1640804829812866,0.1753209251955973,0.2104277725602311,-0.2253856211900711,-0.1690133213996887,0.7288167476654053,0.00416700541973114,0.01464918255805969,0.09075802564620972,2,0.09713000648735129,0.09534441908270462,0.09034553843431598,0.9865662359254256,0.1705766469240189,-0.2088782489299774,-0.9629504084587097,16.45519256591797,15.12671661376953,-36.1663818359375,-1,2,1677557.308914542,2,0,1676669838.8634,0,0,0,0,0,0,0,0,0,1677555.913827,0,0.07926941,98.57754,1676669838.938333,167772201,182416158,0,0,1,1676669838.911374,1,0.4,1
1676669839.492964,10,1676669839.172251,34.21416130780695,-118.3864208137508,246.5355,0,2.049374,-1,-1,10.61956061772579,18.74279267270661,-9999,1676669839.488028,18.36171722412109,15.84117889404297,-35.10198974609375,346.1913452148438,334.5525512695312,12.67913246154785,1677557.932577542,0.1803436279296875,-0.27337646484375,-0.911468505859375,1677557.932577542,-0.3649742305278778,0.5415742993354797,0.2283713817596436,1677557.917870542,-118.3202362060547,104.6800994873047,-326.193115234375,1677557.896477542,0.1737873499970615,0.1975753902193746,0.190765790131319,0.01781252026557922,-0.007257946766912937,-0.4775820076465607,-0.1671273410320282,-0.02532440423965454,-0.2416185736656189,2,0.08589604058612313,0.1060332755457847,0.09532633838628463,0.9860484820535483,0.1927315890789032,-0.1896108537912369,-0.9627576470375061,17.22850036621094,15.4339599609375,-35.51809692382812,-1,2,1677557.308914542,2,0,1676669838.8634,0,0,0,0,0,0,0,0,0,1677555.913827,0,0.07926941,98.57754,1676669838.938333,167772201,182416158,0,0,1,1676669838.911374,1,0.4,1
1676669839.552675,11,1676669839.172251,34.21416130780695,-118.3864208137508,246.5355,0,2.049374,-1,-1,10.61956061772579,18.74279267270661,-9999,1676669839.547756,19.68095397949219,16.9439697265625,-33.7384033203125,345.4259948730469,333.7872009277344,12.67927646636963,1677557.992329542,0.281524658203125,-0.167022705078125,-0.8945465087890625,1677557.992329542,-0.6655652523040771,0.4976974129676819,-0.1188528835773468,1677557.977931542,-117.1573181152344,105.2098083496094,-325.1364135742188,1677557.956229542,0.182531077643777,0.2317724170505915,0.1760637107687738,-0.4950510859489441,0.7265639305114746,0.1637818515300751,-0.001206815242767334,0.02368155121803284,0.08976095914840698,2,0.07646774754102786,0.1226589194693929,0.1003004530224233,0.9844020360283069,0.2261518836021423,-0.1751555055379868,-0.9582149386405945,18.59438323974609,15.88362121582031,-34.7237548828125,-1,2,1677557.946271542,4,2,1676669839.500757,0,0,0,0,0,0,0,0,0,1677555.913827,0,0.07926941,98.57754,1676669838.938333,167772201,182416158,0,0,1,1676669838.911374,1,0.4,1
1676669839.612483,12,1676669839.172251,34.21416130780695,-118.3864208137508,246.5355,0,2.049374,-1,-1,10.61956061772579,18.74279267270661,-9999,1676669839.607841,20.47182464599609,18.38146209716797,-32.40875244140625,345.6086730957031,333.9698791503906,12.67941284179688,1677558.052082542,0.312469482421875,-0.126495361328125,-0.840423583984375,1677558.052082542,-0.2520013451576233,0.7698266506195068,-0.1476869285106659,1677558.037993542,-116.3785095214844,106.6499633789062,-323.6897583007812,1677558.015982542,0.1893154681549304,0.2632815069736946,0.1390367469001604,-0.6257396936416626,0.3637014627456665,-0.1489327698945999,0.01717862486839294,-0.0309053510427475,0.06161612272262573,2,0.05617677914541814,0.1368661681654557,0.1025492305587988,0.9836642705165038,0.2577389478683472,-0.1385892182588577,-0.9562236666679382,19.93934631347656,17.33290100097656,-33.88595581054688,-1,2,1677557.946271542,4,2,1676669839.500757,0,0,0,0,0,0,0,0,0,1677555.913827,0,0.07926941,98.57754,1676669838.938333,167772201,182416158,0,0,1,1676669838.911374,1,0.4,1
1676669839.672135,13,1676669839.172251,34.21416130780695,-118.3864208137508,246.5355,0,2.049374,-1,-1,10.61956061772579,18.74279267270661,-9999,1676669839.66711,23.08761596679688,17.65447235107422,-31.3736572265625,344.8973999023438,333.2586059570312,12.67948436737061,1677558.111834542,0.42681884765625,-0.1934051513671875,-0.7939910888671875,1677558.111834542,1.009001731872559,1.530797719955444,0.4148704409599304,1677558.098051542,-113.8444366455078,106.7995758056641,-322.2511596679688,1677558.075734542,0.1872897368618471,0.3062325169253681,0.1201760997184992,0.2678961455821991,1.320462703704834,0.1447712779045105,-0.005013257265090942,-0.0980389267206192,0.2212726473808289,2,0.04485330270508781,0.1571260083747369,0.1013661990420877,0.9813380616888057,0.2992942333221436,-0.119887039065361,-0.9465991854667664,20.94260406494141,18.47195434570312,-32.34292602539062,-1,2,1677557.946271542,4,2,1676669839.500757,0,0,0,0,0,0,0,0,0,1677555.913827,0,0.07926941,98.57754,1676669838.938333,167772201,182416158,0,0,1,1676669838.911374,1,0.4,1
1676669839.73205,14,1676669839.172251,34.21416130780695,-118.3864208137508,246.5355,0,2.049374,-1,-1,10.61956061772579,18.74279267270661,-9999,1676669839.726936,26.59697723388672,15.51344299316406,-29.63671875,344.7333068847656,333.0945129394531,12.67954158782959,1677558.171586875,0.541748046875,-0.082489013671875,-0.9204559326171875,1677558.171586875,0.4592964947223663,1.715496182441711,-0.2749072015285492,1677558.158112875,-110.9214019775391,104.1657867431641,-321.1227722167969,1677558.135486875,0.1887072689993551,0.3960511319435017,0.1740250291134638,1.236842513084412,1.543118238449097,0.1661776304244995,0.1001817286014557,0.02525985240936279,0.06573057174682617,2,0.06636052002315841,0.2031452592846514,0.1090436882888907,0.9707922615862212,0.3799512982368469,-0.173147976398468,-0.9086565971374512,24.41927337646484,17.07763671875,-30.49404907226562,-1,2,1677557.946271542,4,2,1676669839.500757,0,0,0,0,0,0,0,0,0,1677555.913827,0,0.07926941,98.57754,1676669838.938333,167772201,182416158,0,0,1,1676669838.911374,1,0.4,1
1676669839.791622,15,1676669839.172251,34.21416130780695,-118.3864208137508,246.5355,0,2.049374,-1,-1,10.61956061772579,18.74279267270661,-9999,1676669839.786784,28.92131042480469,16.65054321289062,-26.9443359375,345.0361328125,333.3973388671875,12.67954635620117,1677558.231338875,0.66680908203125,-0.19879150390625,-0.8968658447265625,1677558.231338875,-0.8268020749092102,0.8712068200111389,-0.6263749599456787,1677558.218174875,-107.8811187744141,105.3683319091797,-317.757568359375,1677558.195239875,0.1659182129785241,0.4958691744429859,0.2020270899909344,-0.1693146675825119,1.299973607063293,-0.2545153796672821,0.09195542335510254,0.04004164040088654,-0.07069087028503418,2,0.07719068950491868,0.2514122690098453,0.1045823447544967,0.9591120132041502,0.4661194980144501,-0.200655609369278,-0.8616669178009033,27.46741485595703,15.51544952392578,-28.42599487304688,-1,2,1677557.946271542,4,2,1676669839.500757,0,0,0,0,0,0,0,0,0,1677555.913827,0,0.07926941,98.57754,1676669838.938333,167772201,182416158,0,0,1,1676669838.911374,1,0.4,1
1676669839.851568,16,1676669839.172251,34.21416130780695,-118.3864208137508,246.5355,0,2.049374,-1,-1,10.61956061772579,18.74279267270661,-9999,1676669839.846482,28.97972106933594,18.62117767333984,-25.75076293945312,344.9776611328125,333.3388671875,12.67952537536621,1677558.291091875,0.5249176025390625,-0.1344451904296875,-0.670379638671875,1677558.291091875,-1.126742720603943,0.5060823559761047,0.0127964885905385,1677558.278233875,-107.4365844726562,107.2463531494141,-316.1320190429688,1677558.254991875,0.1669247714278404,0.5532130583190343,0.1536084976301474,-0.9539659023284912,0.3253734409809113,-0.3577299118041992,-0.009700417518615723,-0.08223956823348999,-0.02769261598587036,2,0.05085578412773996,0.277493240248618,0.1008413163134009,0.9540661334966171,0.5192371010780334,-0.1530051231384277,-0.8408223986625671,29.12245941162109,17.38363647460938,-26.47952270507812,-1,2,1677557.946271542,4,2,1676669839.500757,0,0,0,0,0,0,0,0,0,1677555.913827,0,0.07926941,98.57754,1676669838.938333,167772201,182416158,0,0,1,1676669838.911374,1,0.4,1
1676669839.911168,17,1676669839.172251,34.21416130780695,-118.3864208137508,246.5355,0,2.049374,-1,-1,10.61956061772579,18.74279267270661,-9999,1676669839.906312,30.49491882324219,20.09328460693359,-22.84320068359375,344.8055725097656,333.1667785644531,12.67952537536621,1677558.350843875,0.5299835205078125,-0.119476318359375,-0.7341461181640625,1677558.350843875,-0.04098445177078247,1.359872937202454,-0.2720317840576172,1677558.338292875,-106.6005249023438,108.8116455078125,-314.3901977539062,1677558.314743875,0.1945607942247961,0.5801486111008478,0.09531471187972906,-0.8521520495414734,1.247484445571899,-0.2718002498149872,0.08196431398391724,-0.0235733836889267,0.1954083442687988,2,0.01768417405702649,0.2887816730270896,0.1065251992126556,0.9512857693312493,0.5456601977348328,-0.09517045319080353,-0.8325848579406738,29.30128479003906,19.14565277099609,-24.7061767578125,-1,2,1677557.946271542,4,2,1676669839.500757,0,0,0,0,0,0,0,0,0,1677555.913827,0,0.07926941,98.57754,1676669838.938333,167772201,182416158,0,0,1,1676669838.911374,1,0.4,1
1676669839.970993,18,1676669839.172251,34.21416130780695,-118.3864208137508,246.5355,0,2.049374,-1,-1,10.61956061772579,18.74279267270661,-9999,1676669839.966219,32.55332183837891,19.47041320800781,-20.87847900390625,344.4991455078125,332.8603515625,12.67951107025146,1677558.410595875,0.4437713623046875,-0.284423828125,-0.7399444580078125,1677558.410595875,0.7842887043952942,0.8445611000061035,0.5759552121162415,1677558.398354875,-104.0173950195312,108.7171173095703,-311.4921264648438,1677558.374495875,0.1908536404720848,0.657879466523986,0.07747817790961971,0.2643003463745117,1.379781603813171,0.04696216806769371,-0.1255514621734619,-0.09374186396598816,-0.00646287202835083,2,0.005729376926215918,0.3248211646229999,0.1025601063358408,0.9401807325499427,0.6096059679985046,-0.07740068435668945,-0.7889167666435242,31.22689056396484,20.2369384765625,-21.90545654296875,-1,2,1677557.946271542,4,2,1676669839.500757,0,0,0,0,0,0,0,0,0,1677555.913827,0,0.07926941,98.57754,1676669838.938333,167772201,182416158,0,0,1,1676669838.911374,1,0.4,1
1676669840.030806,19,1676669839.172251,34.21416130780695,-118.3864208137508,246.5355,0,2.049374,-1,-1,10.61956061772579,18.74279267270661,-9999,1676669840.025716,32.90851593017578,16.19129943847656,-21.88992309570312,343.0465698242188,331.4077758789062,12.67947387695312,1677558.470347875,0.973541259765625,-0.08587646484375,-0.9733123779296875,1677558.470347875,1.637532949447632,-0.5202812552452087,0.2180356532335281,1677558.458415875,-104.0308074951172,104.8576354980469,-312.5686645507812,1677558.434248875,0.1900554276395265,0.7116267328730322,0.1294767755036562,1.161580443382263,-0.05775217711925507,1.101763248443604,-0.188539445400238,-0.1321761310100555,0.0899050235748291,2,0.0273832810743633,0.3518087101220873,0.1111895758362631,0.9290412054755863,0.6476001143455505,-0.1291153132915497,-0.7509616017341614,33.35386657714844,18.72897338867188,-20.728271484375,-1,2,1677557.946271542,4,2,1676669839.500757,0,0,0,0,0,0,0,0,0,1677555.913827,0,0.07926941,98.57754,1676669838.938333,167772201,182416158,0,0,1,1676669838.911374,1,0.4,1
1676669840.090445,20,1676669839.172251,34.21416130780695,-118.3864208137508,246.5355,0,2.049374,-1,-1,10.61956061772579,18.74279267270661,-9999,1676669840.085872,33.79529571533203,15.88802337646484,-22.29483032226562,345.0331726074219,333.3943786621094,12.67947769165039,1677558.530100875,0.56219482421875,-0.3744964599609375,-0.8775482177734375,1677558.530100875,-0.2781676948070526,0.5030583143234253,-0.4295372664928436,1677558.518480875,-102.8345031738281,104.7421569824219,-313.0606079101562,1677558.494000875,0.1547231511850911,0.7049916120570793,0.2118456779676832,0.8669986724853516,0.8363934755325317,-0.6268517971038818,0.2219434976577759,0.07729965448379517,-0.2270280122756958,2,0.07239527480573835,0.3499479847512942,0.1085174216661907,0.9276418121598724,0.6335404515266418,-0.2102646678686142,-0.7445906400680542,33.07221221923828,15.3201904296875,-22.7933349609375,-1,2,1677557.946271542,4,2,1676669839.500757,0,0,0,0,0,0,0,0,0,1677556.914406,0,0.07926941,98.57754,1676669838.938333,167772201,182416158,0,0,1,1676669838.911374,1,0.4,1
1676669840.150037,21,1676669839.172251,34.21416130780695,-118.3864208137508,246.5355,0,2.049374,-1,-1,10.61956061772579,18.74279267270661,-9999,1676669840.145222,33.37452697753906,17.30741882324219,-21.31048583984375,345.0528259277344,333.4140319824219,12.67943572998047,1677558.589852875,0.714874267578125,-0.21435546875,-0.7982177734375,1677558.530100875,-0.2781676948070526,0.5030583143234253,-0.4295372664928436,1677558.578544875,-103.5002136230469,106.1677703857422,-312.208984375,1677558.553752875,0.1388508233994854,0.7422181925326912,0.1894451991913441,-0.6589678525924683,-0.09279999136924744,-0.2645862698554993,-0.03185802698135376,-0.1725104600191116,-0.1488490700721741,2,0.06288606699550536,0.3662682791241748,0.09857467246015456,0.9231337198176723,0.6638312339782715,-0.1883140504360199,-0.7237857580184937,34.11324310302734,16.49201202392578,-20.97415161132812,-1,2,1677557.946271542,4,2,1676669839.500757,0,0,0,0,0,0,0,0,0,1677556.914406,0,0.07926941,98.57754,1676669838.938333,167772201,182416158,0,0,1,1676669838.911374,1,0.4,1
1676669840.209777,22,1676669839.172251,34.21416130780695,-118.3864208137508,246.5355,0,2.049374,-1,-1,10.61956061772579,18.74279267270661,-9999,1676669840.205231,32.63832855224609,18.80072784423828,-20.97381591796875,345.3975830078125,333.7587890625,12.67940330505371,1677558.649604875,0.5175628662109375,-0.278778076171875,-0.7182464599609375,1677558.649604875,-0.6459188461303711,0.3529774844646454,-0.1605473309755325,1677558.638609875,-104.1941375732422,107.4924926757812,-311.6924133300781,1677558.613505875,0.1591985861865232,0.720302478545086,0.139485999771528,-0.7819836139678955,-0.380550891160965,-0.4762910604476929,-0.05240607261657715,-0.08179101347923279,0.01760649681091309,2,0.03705483061358675,0.3556315262631275,0.09871379876078312,0.9286595838152835,0.6532056331634521,-0.1390341222286224,-0.7443063259124756,32.83311462402344,18.02890777587891,-21.15667724609375,-1,2,1677557.946271542,4,2,1676669839.500757,0,0,0,0,0,0,0,0,0,1677556.914406,0,0.07926941,98.57754,1676669838.938333,167772201,182416158,0,0,1,1676669838.911374,1,0.4,1
1676669840.269563,23,1676669839.172251,34.21416130780695,-118.3864208137508,246.5355,0,2.049374,-1,-1,10.61956061772579,18.74279267270661,-9999,1676669840.264866,33.27345275878906,20.09960174560547,-19.46847534179688,345.3839416503906,333.7451477050781,12.67935562133789,1677558.709357875,0.695220947265625,-0.1232147216796875,-0.6587066650390625,1677558.709357875,0.08928140997886658,0.5622920989990234,-0.427232027053833,1677558.698669875,-103.2980651855469,108.9732513427734,-310.19140625,1677558.673257875,0.175576255409955,0.7284890867381058,0.1002193541574731,-0.466799259185791,0.538366436958313,-0.07725033164024353,0.02366316318511963,-0.06050124019384384,0.01614910364151001,2,0.01542771931919976,0.3585296598735582,0.09959554528568892,0.9280619513084368,0.6624023914337158,-0.1000516712665558,-0.742436945438385,32.81430816650391,19.58039855957031,-20.10348510742188,-1,2,1677557.946271542,4,2,1676669839.500757,0,0,0,0,0,0,0,0,0,1677556.914406,0,0.07926941,98.57754,1676669838.938333,167772201,182416158,0,0,1,1676669838.911374,1,0.4,1
1676669840.329491,24,1676669840.172254,34.21416130780695,-118.3864208137508,246.5355,0,1.755983,-1,-1,10.59718656617862,17.37108871021224,-9999,1676669840.328618,33.29795074462891,20.70378875732422,-17.83718872070312,347.1438598632812,335.5050659179688,12.67934989929199,1677558.769109875,0.690216064453125,-0.029022216796875,-0.390869140625,1677558.769109875,0.5614470839500427,1.817262768745422,-0.6638821363449097,1677558.758730875,-103.5129547119141,109.3781280517578,-308.3298950195312,1677558.733009875,0.1646466514192546,0.7649428206766632,0.08420236667261062,0.1675543040037155,0.860624372959137,-0.4517476558685303,-0.05785542726516724,-0.04721418023109436,0.1012665033340454,2,0.008253017712487876,0.3748318190562054,0.09187615828393547,0.9224920946502819,0.69004225730896,-0.08410289883613586,-0.7188659906387329,33.27313995361328,20.60634613037109,-18.50503540039062,-1,2,1677557.946271542,4,2,1676669839.500757,0,0,0,0,0,0,0,0,0,1677556.914406,0,0.07926941,98.57754,1676669838.938333,167772201,182416158,0,0,1,1676669838.911374,1,0.4,1
1676669840.389027,25,1676669840.172254,34.21416130780695,-118.3864208137508,246.5355,0,1.755983,-1,-1,10.59718656617862,17.37108871021224,-9999,1676669840.384342,35.25917053222656,21.70230865478516,-13.81680297851562,352.3028869628906,340.6640930175781,12.67964935302734,1677558.828861875,0.8376922607421875,0.1376800537109375,-0.285552978515625,1677558.828861875,1.705961108207703,3.430338859558105,-1.741053819656372,1677558.818788875,-101.3365783691406,110.5418090820312,-304.2433776855469,1677558.792761875,0.1176884566078334,0.8674941989760899,0.07671248759948826,1.029198408126831,2.642617702484131,-0.9857094287872314,-0.05650341510772705,0.188179075717926,0.3930982351303101,2,0.01003735191727026,0.4212842070453884,0.06941331591513888,0.904212719437405,0.7604676485061646,-0.07663726806640625,-0.6448377370834351,34.21126556396484,20.6741943359375,-16.31365966796875,-1,2,1677557.946271542,4,2,1676669839.500757,0,0,0,0,0,0,0,0,0,1677556.914406,0,0.07926941,98.57754,1676669838.938333,167772201,182416158,0,0,1,1676669838.911374,1,0.4,1
1676669840.448934,26,1676669840.172254,34.21416130780695,-118.3864208137508,246.5355,0,1.755983,-1,-1,10.59718656617862,17.37108871021224,-9999,1676669840.444067,35.21341705322266,24.8182373046875,-9.13153076171875,1.580318450927734,349.9415283203125,12.68003940582275,1677558.888614875,1.056243896484375,0.0821533203125,-0.9449920654296875,1677558.888614875,0.008878978900611401,0.8784220814704895,-2.166801691055298,1677558.878847875,-101.6331939697266,113.8961486816406,-299.7406616210938,1677558.852514875,-0.008148583577781397,1.071052559523155,0.04885623030743811,1.547604560852051,3.187416315078735,-2.168975353240967,0.08427941799163818,0.1869593858718872,-0.05579501390457153,2,0.02308437986595172,0.5100516514586229,0.008961334489469175,0.8597872212535882,0.876658022403717,-0.04883679747581482,-0.4786288440227509,35.96250152587891,22.75029754638672,-11.3353271484375,-1,2,1677557.946271542,4,2,1676669839.500757,0,0,0,0,0,0,0,0,0,1677556.914406,0,0.07926941,98.57754,1676669838.938333,167772201,182416158,0,0,1,1676669838.911374,1,0.4,1
1676669840.511748,27,1676669840.172254,34.21416130780695,-118.3864208137508,246.5355,0,1.755983,-1,-1,10.59718656617862,17.37108871021224,-9999,1676669840.503818,31.57826995849609,29.35826873779297,-8.300994873046875,4.705745697021484,353.0669555664062,12.68023490905762,1677558.948366875,1.156021118164062,0.070892333984375,-0.75335693359375,1677558.948366875,-2.192484140396118,-1.525653123855591,-1.525403499603271,1677558.938904875,-105.4340362548828,118.4228057861328,-299.1865234375,1677558.912266875,-0.07402551298589997,1.151084231604473,-0.06058241549053074,-1.31548535823822,-0.7473087906837463,-1.986609101295471,0.1771377921104431,-0.08437955379486084,-0.5526463985443115,2,-0.005258104546705389,0.5446075382796641,-0.04750195493067727,0.8373281834558023,0.9115309119224548,0.06054536253213882,-0.406749963760376,33.63554382324219,27.01310729980469,-8.42633056640625,-1,2,1677557.946271542,4,2,1676669839.500757,0,0,0,0,0,0,0,0,0,1677556.914406,0,0.07926941,98.57754,1676669838.938333,167772201,182416158,0,0,1,1676669838.911374,1,0.4,1
1676669840.568531,28,1676669840.172254,34.21416130780695,-118.3864208137508,246.5355,0,1.755983,-1,-1,10.59718656617862,17.37108871021224,-9999,1676669840.563608,28.63986206054688,32.66204071044922,-7.34912109375,5.338253021240234,353.699462890625,12.68034744262695,1677559.008118875,0.7261199951171875,0.1337432861328125,-0.34234619140625,1677559.008118875,-0.269659698009491,-0.4480462372303009,-0.7866604924201965,1677558.998956875,-108.1755981445312,121.5175018310547,-298.3338623046875,1677558.972018875,-0.008026759667944085,1.078759140310837,-0.1998320050479453,-1.573019504547119,-1.287895441055298,-1.258025169372559,0.02618163824081421,-0.2557556629180908,-0.07057878375053406,2,-0.08353641826922181,0.5113815768320914,-0.05465789779828178,0.8535355045401978,0.8638328313827515,0.1985046863555908,-0.4630210995674133,29.71771240234375,31.59503173828125,-7.482666015625,-1,2,1677557.946271542,4,2,1676669839.500757,0,0,0,0,0,0,0,0,0,1677556.914406,0,0.07926941,98.57754,1676669838.938333,167772201,182416158,0,0,1,1676669838.911374,1,0.4,1
1676669840.628315,29,1676669840.172254,34.21416130780695,-118.3864208137508,246.5355,0,1.755983,-1,-1,10.59718656617862,17.37108871021224,-9999,1676669840.623457,26.61469268798828,34.04364013671875,-7.0662841796875,7.910549163818359,356.2717590332031,12.68033218383789,1677559.067871875,0.9583892822265625,0.2655181884765625,-0.681488037109375,1677559.067871875,-0.3809377551078796,0.1283316016197205,-1.111454010009766,1677559.059014875,-110.2807769775391,122.8080749511719,-297.9642944335938,1677559.031771875,-0.001007537599824274,1.040114815036151,-0.2668881109200643,-0.2969831526279449,-0.1821878105401993,-0.9770738482475281,0.1253321170806885,-0.05607417225837708,-0.1372856795787811,2,-0.1152100022559859,0.4925701460738514,-0.06654900084947102,0.86004207919839,0.8319278955459595,0.2637310028076172,-0.4882026016712189,27.39098358154297,33.60824584960938,-7.436248779296875,-1,2,1677557.946271542,4,2,1676669839.500757,0,0,0,0,0,0,0,0,0,1677556.914406,0,0.07926941,98.57754,1676669838.938333,167772201,182416158,0,0,1,1676669838.911374,1,0.4,1
1676669840.687894,30,1676669840.172254,34.21416130780695,-118.3864208137508,246.5355,0,1.755983,-1,-1,10.59718656617862,17.37108871021224,-9999,1676669840.683349,24.83473968505859,35.60324859619141,-7.478729248046875,10.23876571655273,358.5999755859375,12.68031597137451,1677559.127623875,0.74835205078125,0.0563812255859375,-0.4706573486328125,1677559.127623875,0.5032474398612976,-0.7723172307014465,-0.8240427374839783,1677559.119069875,-112.0088806152344,124.4977569580078,-298.4193725585938,1677559.091523875,-0.01197370650815606,1.033967280939897,-0.3304196004852056,-0.08254284411668777,-0.477056473493576,-0.6660107970237732,0.3567665815353394,0.132881224155426,-0.297149658203125,2,-0.1400454357073526,0.4883774962077035,-0.08641778395707267,0.8569752971863309,0.8128500580787659,0.3244399726390839,-0.4837493896484375,25.42528533935547,34.99666595458984,-6.971771240234375,-1,2,1677557.946271542,4,2,1676669839.500757,0,0,0,0,0,0,0,0,0,1677556.914406,0,0.07926941,98.57754,1676669838.938333,167772201,182416158,0,0,1,1676669838.911374,1,0.4,1
1676669840.749277,31,1676669840.172254,34.21416130780695,-118.3864208137508,246.5355,0,1.755983,-1,-1,10.59718656617862,17.37108871021224,-9999,1676669840.742966,23.81705474853516,36.55801391601562,-6.493011474609375,11.754075050354,0.1152851358056068,12.68030166625977,1677559.187375625,0.93310546875,-0.1064300537109375,-0.4646759033203125,1677559.187375625,-0.1502406299114227,1.299509167671204,0.4821645021438599,1677559.179125625,-112.9114990234375,125.408447265625,-296.9756469726562,1677559.151276625,-0.04901285592507342,0.9865734288821986,-0.3593294237719108,-0.03245335817337036,0.1977090537548065,-0.6628833413124084,-0.01736277341842651,-0.2792893648147583,0.1164534687995911,2,-0.1459316482884515,0.4696182400299062,-0.105828301243889,0.8642702448840698,0.7808667421340942,0.3516465723514557,-0.5163253545761108,24.14155578613281,36.14752197265625,-7.919891357421875,-1,2,1677557.946271542,4,2,1676669839.500757,0,0,0,0,0,0,0,0,0,1677556.914406,0,0.07926941,98.57754,1676669838.938333,167772201,182416158,0,0,1,1676669838.911374,1,0.4,1
1676669840.80752,32,1676669840.172254,34.21416130780695,-118.3864208137508,246.5355,0,1.755983,-1,-1,10.59718656617862,17.37108871021224,-9999,1676669840.802829,25.99221038818359,34.66810607910156,-6.0125732421875,7.257930755615234,355.619140625,12.68032169342041,1677559.247128625,1.064224243164062,-0.0963897705078125,-0.76678466796875,1677559.247128625,-1.043673157691956,-0.8773341774940491,1.453688383102417,1677559.239188625,-110.5699615478516,123.1920776367188,-296.8351745605469,1677559.211028625,-0.02806079467038568,1.045998985821339,-0.3535520258085211,-0.2676765322685242,0.1487049162387848,1.03937840461731,0.2005074620246887,-0.4272412061691284,-0.3075248599052429,2,-0.1454356094773862,0.4937859510000866,-0.09979351773093759,0.8515075509596957,0.811897873878479,0.3462323248386383,-0.4700478315353394,24.62883758544922,36.04873657226562,-6.391845703125,-1,2,1677557.946271542,4,2,1676669839.500757,0,0,0,0,0,0,0,0,0,1677556.914406,0,0.07926941,98.57754,1676669838.938333,167772201,182416158,0,0,1,1676669838.911374,1,0.4,1
1676669840.868119,33,1676669840.172254,34.21416130780695,-118.3864208137508,246.5355,0,1.755983,-1,-1,10.59718656617862,17.37108871021224,-9999,1676669840.862385,29.38638305664062,33.15592956542969,-5.01873779296875,357.1796264648438,345.5408325195312,12.68053340911865,1677559.306880625,1.068740844726562,0.25494384765625,-0.792022705078125,1677559.306880625,-1.184763669967651,-1.41422963142395,2.259109020233154,1677559.299243625,-107.0338134765625,121.7523193359375,-295.8131713867188,1677559.270780625,0.06796819891761761,1.034815027880482,-0.3074676111364053,-1.341387867927551,-1.136270046234131,1.878042817115784,0.1222792267799377,-0.4502594470977783,-0.2246599197387695,2,-0.1496162811911427,0.4839909878861119,-0.04651647068640735,0.8609319609917123,0.81944739818573,0.3026459813117981,-0.4867353737354279,27.61326599121094,34.28507995605469,-5.76068115234375,-1,2,1677557.946271542,4,2,1676669839.500757,0,0,0,0,0,0,0,0,0,1677556.914406,0,0.07926941,98.57754,1676669838.938333,167772201,182416158,0,0,1,1676669838.911374,1,0.4,1
1676669840.92699,34,1676669840.172254,34.21416130780695,-118.3864208137508,246.5355,0,1.755983,-1,-1,10.59718656617862,17.37108871021224,-9999,1676669840.922316,31.53945922851562,30.15719604492188,-7.606597900390625,348.3545837402344,336.7157897949219,12.680832862854,1677559.366633625,0.739532470703125,0.1961822509765625,-0.8896636962890625,1677559.366633625,-0.651378333568573,-2.704155921936035,1.597198605537415,1677559.359302625,-105.2402191162109,118.6711578369141,-298.6705017089844,1677559.330533625,0.2038740629457336,0.9833591743675614,-0.2375063321149637,-0.8508245348930359,-2.294090270996094,1.745566487312317,0.125313401222229,0.04322372376918793,-0.2863715887069702,2,-0.1516013353643376,0.4557208556962769,0.03343215077306655,0.8764802488030935,0.8089973926544189,0.2352796941995621,-0.53867107629776,31.33347320556641,31.57356262207031,-5.44073486328125,-1,2,1677557.946271542,4,2,1676669839.500757,0,0,0,0,0,0,0,0,0,1677556.914406,0,0.07926941,98.57754,1676669838.938333,167772201,182416158,0,0,1,1676669838.911374,1,0.4,1
1676669840.989136,35,1676669840.172254,34.21416130780695,-118.3864208137508,246.5355,0,1.755983,-1,-1,10.59718656617862,17.37108871021224,-9999,1676669840.981874,32.17802429199219,27.39821624755859,-12.02813720703125,341.6482238769531,330.0094299316406,12.68113613128662,1677559.426385625,0.6859130859375,0.3097991943359375,-0.8006744384765625,1677559.426385625,-0.02493704110383987,-2.673028230667114,1.192015409469604,1677559.419360625,-104.4321594238281,115.9601135253906,-303.0500183105469,1677559.390285625,0.2965959170666173,0.8447167216063487,-0.1848645737368354,-0.3474308848381042,-2.663479804992676,1.68181312084198,0.0005539059638977051,0.1111390143632889,-0.1510958671569824,2,-0.1435738011990896,0.3912434029986344,0.09677570867878299,0.9038526857715816,0.7350417375564575,0.1838134229183197,-0.6526303291320801,32.13760375976562,28.77884674072266,-9.938507080078125,-1,2,1677557.946271542,4,2,1676669839.500757,0,0,0,0,0,0,0,0,0,1677556.914406,0,0.07926941,98.57754,1676669838.938333,167772201,182416158,0,0,1,1676669838.911374,1,0.4,1
1676669841.046419,36,1676669840.172254,34.21416130780695,-118.3864208137508,246.5355,0,1.755983,-1,-1,10.59718656617862,17.37108871021224,-9999,1676669841.041633,30.96510314941406,25.12528991699219,-16.485595703125,337.2547607421875,325.615966796875,12.68131065368652,1677559.486137625,0.6507568359375,0.242889404296875,-0.817657470703125,1677559.486137625,0.3232009708881378,-1.945491075515747,1.049156785011292,1677559.479418625,-105.880859375,113.7212066650391,-307.5411987304688,1677559.450037625,0.3577759142535123,0.7016225195193572,-0.1343659273428222,-0.2142359763383865,-2.182148694992065,1.119331002235413,-0.07520216703414917,0.1286570578813553,-0.05413895845413208,2,-0.1230489389182627,0.3261951151121349,0.1440185765604626,0.9261286398565831,0.6396399140357971,0.1339619755744934,-0.7569113969802856,31.55369567871094,26.34329223632812,-14.4034423828125,-1,2,1677557.946271542,4,2,1676669839.500757,0,0,0,0,0,0,0,0,0,1677556.914406,0,0.07926941,98.57754,1676669838.938333,167772201,182416158,0,0,1,1676669838.911374,1,0.4,1
1676669841.110088,37,1676669840.172254,34.21416130780695,-118.3864208137508,246.5355,0,1.755983,-1,-1,10.59718656617862,17.37108871021224,-9999,1676669841.101446,29.53590393066406,22.59309387207031,-21.23822021484375,333.6687622070312,322.0299682617188,12.68146896362305,1677559.545890625,0.5645751953125,0.1790771484375,-0.884552001953125,1677559.545890625,-0.1028310433030128,-1.94680643081665,1.122323751449585,1677559.539479625,-107.3999328613281,111.0671844482422,-312.3793029785156,1677559.509790625,0.402084800409975,0.5898124313849553,-0.08645692977694469,0.4784219563007355,-2.006541728973389,1.092467069625854,0.08007335662841797,0.1332247406244278,-0.03587430715560913,2,-0.09850252526799615,0.2762729809197021,0.1785841164258453,0.9391901062823377,0.5541276931762695,0.08634926378726959,-0.8279410004615784,30.61217498779297,24.36143493652344,-17.9285888671875,-1,2,1677557.946271542,4,2,1676669839.500757,0,0,0,0,0,0,0,0,0,1677556.914406,0,0.07926941,98.57754,1676669838.938333,167772201,182416158,0,0,1,1676669838.911374,1,0.4,1
1676669841.166125,38,1676669840.172254,34.21416130780695,-118.3864208137508,246.5355,0,1.755983,-1,-1,10.59718656617862,17.37108871021224,-9999,1676669841.16121,28.62786865234375,20.60064697265625,-23.5948486328125,329.8757934570312,318.2369995117188,12.68153667449951,1677559.605642625,0.496124267578125,0.090606689453125,-0.727752685546875,1677559.605642625,0.3302359580993652,-0.8013656735420227,1.170842289924622,1677559.599540625,-108.0276641845703,109.2131805419922,-314.4269409179688,1677559.569542625,0.4542904473497626,0.4757879566090569,-0.05077265669375252,-0.1678166538476944,-1.443427801132202,1.075972199440002,0.04545038938522339,0.08805838227272034,0.09704560041427612,2,-0.07708707624039786,0.2239738959409085,0.2129559746359803,0.9479150791742974,0.4574487805366516,0.05075084418058395,-0.8877865672111511,28.90422821044922,22.01639556884766,-22.55746459960938,-1,2,1677557.946271542,4,2,1676669839.500757,0,0,0,0,0,0,0,0,0,1677556.914406,0,0.07926941,98.57754,1676669838.938333,167772201,182416158,0,0,1,1676669838.911374,1,0.4,1
1676669841.229947,39,1676669840.172254,34.21416130780695,-118.3864208137508,246.5355,0,1.755983,-1,-1,10.59718656617862,17.37108871021224,-9999,1676669841.220798,28.65396118164062,18.05535125732422,-25.94485473632812,326.5648193359375,314.926025390625,12.68155288696289,1677559.665395625,0.486541748046875,0.038421630859375,-0.8161773681640625,1677559.665395625,0.2317759692668915,-0.6079826354980469,0.9807718992233276,1677559.659599625,-108.0499877929688,106.6292877197266,-317.0084838867188,1677559.629295625,0.5077349817713955,0.418966291056394,-0.01094614783456302,0.3926692008972168,-0.7252554297447205,1.107562303543091,0.08876770734786987,0.07563246786594391,0.1120483875274658,2,-0.05740864565343084,0.1999415816896688,0.2445535310400992,0.9470591721412126,0.4067919850349426,0.01094592921435833,-0.9134552478790283,28.57271575927734,19.45220947265625,-24.59725952148438,-1,2,1677557.946271542,4,2,1676669839.500757,0,0,0,0,0,0,0,0,0,1677556.914406,0,0.07926941,98.57754,1676669838.938333,167772201,182416158,0,0,1,1676669838.911374,1,0.4,1
1676669841.285485,40,1676669841.122258,34.21416034233551,-118.3864656794398,246.797,0.3386164,1.613574,-1,-1,10.49032262175941,16.55762180203457,-9999,1676669841.280606,27.67639923095703,16.12909698486328,-27.54046630859375,324.8621520996094,313.2233581542969,12.68155479431152,1677559.725147625,0.473388671875,0.0138092041015625,-0.7227783203125,1677559.725147625,0.4932278096675873,-0.9034832715988159,0.311010867357254,1677559.719656625,-109.1515960693359,104.7453765869141,-318.5018920898438,1677559.689047625,0.5513606429289101,0.3768325797044753,0.02718437355540266,0.3689768612384796,-0.9146878719329834,0.6944378614425659,0.1854272484779358,0.1181081980466843,0.1107809543609619,2,-0.03813250828256821,0.1838484871878653,0.269809188325506,0.9444303552933628,0.3678411841392517,-0.02718102559447289,-0.9294912815093994,28.30833435058594,17.09854888916016,-26.62478637695312,-1,2,1677557.946271542,4,2,1676669839.500757,0,0,0,0,0,0,0,0,0,1677556.914406,0,0.07926941,98.57754,1676669838.938333,167772201,182416158,0,0,1,1676669838.911374,1,0.4,1
1676669841.345301,41,1676669841.122258,34.21416034233551,-118.3864656794398,246.797,0.3386164,1.613574,-1,-1,10.49032262175941,16.55762180203457,-9999,1676669841.340282,26.93062591552734,14.79640197753906,-28.93231201171875,324.3137512207031,312.6749572753906,12.6815299987793,1677559.784899625,0.4195404052734375,-0.1023406982421875,-0.7338104248046875,1677559.784899625,0.5466119647026062,-0.3466455638408661,0.3739885091781616,1677559.779720625,-109.7971649169922,103.4898376464844,-319.8400268554688,1677559.748800625,0.5612682751308505,0.3225401954982579,0.06138693611799552,0.4542550146579742,-0.6626949906349182,0.2912231683731079,0.1153676807880402,0.05886125192046165,0.2488471865653992,2,-0.01534640394585182,0.1626071119839517,0.277977399829792,0.946600119626305,0.316379725933075,-0.06134838983416557,-0.9466468095779419,27.12677001953125,15.43935394287109,-28.108642578125,-1,2,1677557.946271542,4,2,1676669839.500757,0,0,0,0,0,0,0,0,0,1677556.914406,0,0.07926941,98.57754,1676669838.938333,167772201,182416158,0,0,1,1676669838.911374,1,0.4,1
1676669841.405079,42,1676669841.122258,34.21416034233551,-118.3864656794398,246.797,0.3386164,1.613574,-1,-1,10.49032262175941,16.55762180203457,-9999,1676669841.400222,26.89173126220703,12.84521484375,-29.1907958984375,322.598388671875,310.9595947265625,12.68156909942627,1677559.844652625,0.4138336181640625,0.0595550537109375,-0.746612548828125,1677559.844652625,0.5334937572479248,0.4187533259391785,0.5093063712120056,1677559.839777625,-109.8143310546875,101.4567565917969,-320.0316162109375,1677559.808552625,0.5708335795680853,0.2989969447700792,0.09706238191159926,0.5479627847671509,-0.1255607008934021,0.6346537470817566,0.04680570960044861,-0.03851165622472763,0.2406699657440186,2,0.004143926643437171,0.1562549978267132,0.2850222695077768,0.9456899609132395,0.2931753396987915,-0.09691004455089569,-0.9511343836784363,26.59478759765625,14.178955078125,-29.36807250976562,-1,2,1677557.946271542,4,2,1676669839.500757,0,0,0,0,0,0,0,0,0,1677556.914406,0,0.07926941,98.57754,1676669838.938333,167772201,182416158,0,0,1,1676669838.911374,1,0.4,1
1676669841.467252,43,1676669841.122258,34.21416034233551,-118.3864656794398,246.797,0.3386164,1.613574,-1,-1,10.49032262175941,16.55762180203457,-9999,1676669841.459935,26.59848022460938,12.42153930664062,-29.9852294921875,322.412841796875,310.7740478515625,12.68154239654541,1677559.904404625,0.238433837890625,-0.215057373046875,-0.903961181640625,1677559.904404625,-0.814489483833313,-0.9046622514724731,0.2212852537631989,1677559.899838625,-110.2451629638672,101.189453125,-320.8577270507812,1677559.868304625,0.5894089783260616,0.3101861075284358,0.1347459967132732,0.201079323887825,-0.2102749347686768,0.004163701087236404,0.2155210375785828,0.09458954632282257,0.04244554042816162,2,0.01888072097570742,0.1667965729762063,0.296270789468937,0.9402371288234754,0.3024690449237823,-0.1343386173248291,-0.9436448216438293,27.22336578369141,12.43043518066406,-29.29876708984375,-1,2,1677557.946271542,4,2,1676669839.500757,0,0,0,0,0,0,0,0,0,1677556.914406,0,0.07926941,98.57754,1676669838.938333,167772201,182416158,0,0,1,1676669838.911374,1,0.4,1
1676669841.524601,44,1676669841.122258,34.21416034233551,-118.3864656794398,246.797,0.3386164,1.613574,-1,-1,10.49032262175941,16.55762180203457,-9999,1676669841.51977,25.99116516113281,13.15180206298828,-29.929931640625,321.5558471679688,309.9170532226562,12.68157577514648,1677559.964157625,0.278106689453125,-0.115386962890625,-0.824798583984375,1677559.964157625,-0.1734343767166138,0.1245179623365402,0.09518270939588547,1677559.959896625,-110.8340301513672,101.9434509277344,-320.71923828125,1677559.928057625,0.6045212337774202,0.2651992963315793,0.1045246304904917,-0.762107789516449,-0.4212046265602112,0.2519675195217133,-0.01466891169548035,-0.02643337100744247,0.2887681126594543,2,0.01012972207872191,0.141459217199407,0.3012564922737765,0.942937539052312,0.2606711089611053,-0.1043344065546989,-0.9597733616828918,26.13528442382812,12.60319519042969,-29.86785888671875,-1,2,1677557.946271542,4,2,1676669839.500757,0,0,0,0,0,0,0,0,0,1677556.914406,0,0.07926941,98.57754,1676669838.938333,167772201,182416158,0,0,1,1676669838.911374,1,0.4,1
1676669841.587982,45,1676669841.122258,34.21416034233551,-118.3864656794398,246.797,0.3386164,1.613574,-1,-1,10.49032262175941,16.55762180203457,-9999,1676669841.579506,25.74791717529297,12.93358612060547,-29.77117919921875,321.955810546875,310.3170166015625,12.68161296844482,1677560.023909625,0.2276611328125,-0.1375274658203125,-0.966796875,1677560.023909625,0.1779092848300934,-0.1297175139188766,-0.2495768070220947,1677560.019950625,-111.0925903320312,101.6635894775391,-320.6270141601562,1677559.987809625,0.613727925286623,0.2624625252919584,0.08972722741040873,0.1818417608737946,-0.03925100713968277,-0.02885350584983826,0.01370945572853088,-0.03372986614704132,0.04417484998703003,2,0.002898227404784084,0.1380475300567484,0.3047664112445793,0.9423650831229946,0.2584157884120941,-0.089606873691082,-0.961868941783905,26.04360198974609,13.34008026123047,-30.08010864257812,-1,2,1677557.946271542,4,2,1676669839.500757,0,0,0,0,0,0,0,0,0,1677556.914406,0,0.07926941,98.57754,1676669838.938333,167772201,182416158,0,0,1,1676669838.911374,1,0.4,1
1676669841.643833,46,1676669841.122258,34.21416034233551,-118.3864656794398,246.797,0.3386164,1.613574,-1,-1,10.49032262175941,16.55762180203457,-9999,1676669841.639059,25.20404815673828,13.39933776855469,-30.09664916992188,323.4708862304688,311.8320922851562,12.68171501159668,1677560.083662625,0.2551116943359375,-0.1341094970703125,-1.033523559570312,1677560.083662625,0.1935236603021622,-0.2214277237653732,-0.5561439394950867,1677560.080002625,-111.5511932373047,102.0386657714844,-320.977294921875,1677560.047562625,0.597238008782903,0.256254606613421,0.09723124199358815,0.08301397413015366,-0.1184606924653053,-0.3808600306510925,-0.05041882395744324,-0.04873482882976532,0.0007714629173278809,2,0.008517393524075781,0.1361577050631333,0.2973789638665255,0.9449626344998192,0.2522620856761932,-0.0970781147480011,-0.9627770781517029,25.38571166992188,13.05373382568359,-30.36135864257812,-1,2,1677557.946271542,4,2,1676669839.500757,0,0,0,0,0,0,0,0,0,1677557.465355,0,0.03962708,98.57798,1676669838.938333,167772201,182416158,0,0,1,1676669838.911374,1,0.4,1
1676669841.70809,47,1676669841.122258,34.21416034233551,-118.3864656794398,246.797,0.3386164,1.613574,-1,-1,10.49032262175941,16.55762180203457,-9999,1676669841.698822,23.34744262695312,13.37471008300781,-31.38385009765625,325.4805908203125,313.841796875,12.6818675994873,1677560.143414875,0.184906005859375,-0.1552734375,-0.9527130126953125,1677560.143414875,0.3889136612415314,-0.5209702253341675,-0.4459961354732513,1677560.140058875,-113.6073455810547,102.0982055664062,-322.2378540039062,1677560.107314625,0.5642420608956251,0.2448553478129336,0.1004643275132934,0.4133998155593872,-0.5720441341400146,-0.5195912718772888,0.02066241204738617,-0.06407221406698227,-0.08765220642089844,2,0.01390998305058602,0.1310200852080972,0.2818506542123935,0.9503685274123105,0.2411936521530151,-0.1002954170107841,-0.9652804732322693,24.52492523193359,13.55007934570312,-30.31851196289062,-1,2,1677557.946271542,4,2,1676669839.500757,0,0,0,0,0,0,0,0,0,1677557.465355,0,0.03962708,98.57798,1676669838.938333,167772201,182416158,0,0,1,1676669838.911374,1,0.4,1
1676669841.76461,48,1676669841.122258,34.21416034233551,-118.3864656794398,246.797,0.3386164,1.613574,-1,-1,10.49032262175941,16.55762180203457,-9999,1676669841.75857,23.01879119873047,13.12526702880859,-31.9097900390625,327.1594543457031,315.5206604003906,12.68201923370361,1677560.203167875,0.2878875732421875,-0.0764617919921875,-1.289947509765625,1677560.203167875,0.5112675428390503,0.1973972320556641,-0.2605583667755127,1677560.200117875,-113.6720733642578,101.7293548583984,-322.8298950195312,1677560.167067875,0.5309979717419635,0.2190793562158153,0.1190431325431194,0.6727598905563354,0.2451441138982773,-0.515460729598999,0.0310484766960144,0.02377625554800034,0.1635257601737976,2,0.02842412075245055,0.12081867441667,0.2666315512752765,0.9557731910704796,0.2157929688692093,-0.1187621653079987,-0.9691898226737976,22.92949676513672,13.58955383300781,-31.27474975585938,-1,2,1677557.946271542,4,2,1676669839.500757,0,0,0,0,0,0,0,0,0,1677557.465355,0,0.03962708,98.57798,1676669838.938333,167772201,182416158,0,0,1,1676669838.911374,1,0.4,1
1676669841.858312,49,1676669841.122258,34.21416034233551,-118.3864656794398,246.797,0.3386164,1.613574,-1,-1,10.49032262175941,16.55762180203457,-9999,1676669841.83814,21.84255981445312,14.23214721679688,-32.48983764648438,328.7730102539062,317.1342163085938,12.68218421936035,1677560.262919875,0.2253875732421875,-0.036163330078125,-0.922607421875,1677560.262919875,-0.2571111619472504,-0.6652472615242004,-0.3976147472858429,1677560.260176875,-114.7614288330078,102.7413482666016,-323.1127319335938,1677560.226819875,0.5034065323225383,0.2303012706335612,0.1459252713469776,-0.2653497755527496,-0.4553578794002533,-0.2645187675952911,0.1064764261245728,0.1055977940559387,-0.4143897294998169,2,0.04159407346259373,0.1290151198212436,0.254858095556825,0.957430074630615,0.2258447408676147,-0.1454079300165176,-0.9632500410079956,22.63328552246094,13.06128692626953,-31.80975341796875,-1,2,1677557.946271542,4,2,1676669839.500757,0,0,0,0,0,0,0,0,0,1677557.465355,0,0.03962708,98.57798,1676669838.938333,167772201,182416158,0,0,1,1676669838.911374,1,0.4,1
1676669841.882921,50,1676669841.122258,34.21416034233551,-118.3864656794398,246.797,0.3386164,1.613574,-1,-1,10.49032262175941,16.55762180203457,-9999,1676669841.878153,20.38142395019531,14.40676116943359,-33.16641235351562,329.7436218261719,318.1048278808594,12.68227958679199,1677560.322672875,0.184722900390625,-0.014801025390625,-0.8828125,1677560.262919875,-0.2571111619472504,-0.6652472615242004,-0.3976147472858429,1677560.320232875,-116.4478607177734,103.1171875,-324.2086181640625,1677560.286572875,0.4848192297893683,0.1935563844550056,0.1250915391538447,0.07124098390340805,-0.6433781385421753,-0.386696457862854,-0.01067133247852325,0.1007940545678139,0.07468700408935547,2,0.03724429054066442,0.1085522837469928,0.2443151839503832,0.9628806779871872,0.1908470988273621,-0.1247655600309372,-0.9736585021018982,21.84255981445312,14.23214721679688,-32.48983764648438,-1,2,1677557.946271542,4,2,1676669839.500757,0,0,0,0,0,0,0,0,0,1677557.465355,0,0.03962708,98.57798,1676669838.938333,167772201,182416158,0,0,1,1676669838.911374,1,0.4,1
1676669841.943305,51,1676669841.122258,34.21416034233551,-118.3864656794398,246.797,0.3386164,1.613574,-1,-1,10.49032262175941,16.55762180203457,-9999,1676669841.937879,19.62738037109375,14.60657501220703,-33.49411010742188,331.7177734375,320.0789794921875,12.68239212036133,1677560.382424875,0.1598358154296875,-0.0257415771484375,-0.8758087158203125,1677560.382424875,0.3371809720993042,-0.1165622994303703,-0.5663145184516907,1677560.380292875,-117.0567321777344,103.4351806640625,-324.3101806640625,1677560.346324875,0.4576737163426122,0.1707954767570806,0.1291831893885371,0.2461299002170563,-0.2695590257644653,-0.5203980803489685,0.03121800720691681,0.1048984676599503,0.1137742400169373,2,0.04332677689078986,0.09748593678328728,0.2309087925528562,0.9671093408659648,0.1685500591993332,-0.1288241744041443,-0.9772385358810425,19.90653991699219,14.56473541259766,-33.47161865234375,-1,2,1677557.946271542,4,2,1676669839.500757,0,0,0,0,0,0,0,0,0,1677557.465355,0,0.03962708,98.57798,1676669838.938333,167772201,182416158,0,0,1,1676669838.911374,1,0.4,1
1676669842.002539,52,1676669841.122258,34.21416034233551,-118.3864656794398,246.797,0.3386164,1.613574,-1,-1,10.49032262175941,16.55762180203457,-9999,1676669841.99744,18.61724853515625,14.58440399169922,-34.08377075195312,333.4624938964844,321.8236999511719,12.68252754211426,1677560.442177875,0.1900482177734375,-0.06353759765625,-0.9334564208984375,1677560.442177875,0.2577311396598816,0.09350065886974335,-0.3922370076179504,1677560.440343875,-118.2342834472656,103.2870635986328,-325.0634765625,1677560.406077875,0.4213534452737759,0.1672077872643672,0.1414676801266502,0.2169625014066696,0.02500217780470848,-0.5265367031097412,0.00582614541053772,0.09210717678070068,0.05481606721878052,2,0.05145146909978733,0.0961840044399821,0.2136415174170894,0.970803094601673,0.1647671163082123,-0.1409962773323059,-0.9762027859687805,19.20653533935547,14.95901489257812,-33.77700805664062,-1,2,1677557.946271542,4,2,1676669839.500757,0,0,0,0,0,0,0,0,0,1677557.465355,0,0.03962708,98.57798,1676669838.938333,167772201,182416158,0,0,1,1676669838.911374,1,0.4,1
1676669842.066262,53,1676669841.122258,34.21416034233551,-118.3864656794398,246.797,0.3386164,1.613574,-1,-1,10.49032262175941,16.55762180203457,-9999,1676669842.057413,19.02813720703125,14.68987274169922,-33.86810302734375,334.8593444824219,323.2205505371094,12.68266201019287,1677560.501929875,0.2218170166015625,-0.1189727783203125,-1.006683349609375,1677560.501929875,0.2110994607210159,0.1981152147054672,-0.3206925392150879,1677560.500399875,-117.7082214355469,103.4786834716797,-324.8910522460938,1677560.465829875,0.3934914820874661,0.1759983233299524,0.1519701748708981,0.3410959839820862,0.1979993134737015,-0.4101432263851166,0.02747312188148499,0.07443585991859436,0.06043952703475952,2,0.05702920426662104,0.1007232016779689,0.2007034934734195,0.9727901488474693,0.1730731576681137,-0.1513858884572983,-0.973205029964447,18.99774169921875,14.96815490722656,-33.54183959960938,-1,2,1677557.946271542,4,2,1676669839.500757,0,0,0,0,0,0,0,0,0,1677557.465355,0,0.03962708,98.57798,1676669838.938333,167772201,182416158,0,0,1,1676669838.911374,1,0.4,1
1676669842.121965,54,1676669841.122258,34.21416034233551,-118.3864656794398,246.797,0.3386164,1.613574,-1,-1,10.49032262175941,16.55762180203457,-9999,1676669842.117317,19.29563903808594,14.82073211669922,-33.86538696289062,335.8603820800781,324.2215881347656,12.68270206451416,1677560.561682875,0.25506591796875,-0.0849609375,-0.9679107666015625,1677560.561682875,0.02537033706903458,0.3123302161693573,-0.2421939969062805,1677560.560459875,-117.7416534423828,103.5045776367188,-324.6854858398438,1677560.525582875,0.3695120343657572,0.1917871980342407,0.1610471833286461,-0.02251267060637474,0.2349438667297363,-0.2680739462375641,0.02121877670288086,0.04388163983821869,-0.07019174098968506,2,0.06117208372646524,0.1085210930759864,0.1898406627580116,0.9738796465694847,0.1881470680236816,-0.1603519320487976,-0.9689623117446899,18.97373199462891,14.77257537841797,-34.34661865234375,-1,2,1677557.946271542,4,2,1676669839.500757,0,0,0,0,0,0,0,0,0,1677557.465355,0,0.03962708,98.57798,1676669838.938333,167772201,182416158,0,0,1,1676669838.911374,1,0.4,1
1676669842.185763,55,1676669841.122258,34.21416034233551,-118.3864656794398,246.797,0.3386164,1.613574,-1,-1,10.49032262175941,16.55762180203457,-9999,1676669842.17688,19.74037933349609,14.98996734619141,-33.06976318359375,336.3051147460938,324.6663208007812,12.68280696868896,1677560.621434875,0.2520751953125,-0.109893798828125,-0.8227081298828125,1677560.561682875,0.02537033706903458,0.3123302161693573,-0.2421939969062805,1677560.620517875,-117.1177673339844,103.7305755615234,-323.5760498046875,1677560.585334875,0.3529046591738693,0.211385792878391,0.1583490872292124,0.07430960983037949,0.4327663481235504,-0.1819498687982559,0.01891469955444336,0.05298240482807159,0.03724008798599243,2,0.05896866692723342,0.1173389614397151,0.1822260591077208,0.9744474231445905,0.2071900367736816,-0.157688170671463,-0.9655085206031799,19.66337585449219,14.98146057128906,-34.09652709960938,-1,2,1677557.946271542,4,2,1676669839.500757,0,0,0,0,0,0,0,0,0,1677557.465355,0,0.03962708,98.57798,1676669838.938333,167772201,182416158,0,0,1,1676669838.911374,1,0.4,1
