loggingTime,loggingSample,locationTimestamp_since1970,locationLatitude,locationLongitude,locationAltitude,locationSpeed,locationSpeedAccuracy,locationCourse,locationCourseAccuracy,locationVerticalAccuracy,locationHorizontalAccuracy,locationFloor,locationHeadingTimestamp_since1970,locationHeadingX,locationHeadingY,locationHeadingZ,locationTrueHeading,locationMagneticHeading,locationHeadingAccuracy,accelerometerTimestamp_sinceReboot,accelerometerAccelerationX,accelerometerAccelerationY,accelerometerAccelerationZ,gyroTimestamp_sinceReboot,gyroRotationX,gyroRotationY,gyroRotationZ,magnetometerTimestamp_sinceReboot,magnetometerX,magnetometerY,magnetometerZ,motionTimestamp_sinceReboot,motionYaw,motionRoll,motionPitch,motionRotationRateX,motionRotationRateY,motionRotationRateZ,motionUserAccelerationX,motionUserAccelerationY,motionUserAccelerationZ,motionAttitudeReferenceFrame,motionQuaternionX,motionQuaternionY,motionQuaternionZ,motionQuaternionW,motionGravityX,motionGravityY,motionGravityZ,motionMagneticFieldX,motionMagneticFieldY,motionMagneticFieldZ,motionHeading,motionMagneticFieldCalibrationAccuracy,activityTimestamp_sinceReboot,activity,activityActivityConfidence,activityActivityStartDate,pedometerStartDate,pedometerNumberofSteps,pedometerAverageActivePace,pedometerCurrentPace,pedometerCurrentCadence,pedometerDistance,pedometerFloorAscended,pedometerFloorDescended,pedometerEndDate,altimeterTimestamp_sinceReboot,altimeterReset,altimeterRelativeAltitude,altimeterPressure,IP_Timestamp_since1970,IP_en0,IP_pdp_ip0,deviceID,deviceOrientationTimeStamp_since1970,deviceOrientation,batteryTimeStamp_since1970,batteryState,batteryLevel,label
1676782822.492681,1,1676782820.219883,34.04854871614292,-117.8141121245962,218.4661,-1,-1,-1,-1,16.2757682800293,35,-9999,1676782822.478904,-19.44355010986328,-29.86278533935547,-30.92245483398438,184.8072814941406,173.3241119384766,10,1739075.52239425,-0.1014862060546875,-0.336151123046875,-0.9518890380859375,1739075.49376625,-0.3413823544979095,-0.3757664263248444,0.01900831237435341,1739075.49647725,-146.6526641845703,39.5162353515625,-324.9908142089844,1739075.46016125,0.143606682813169,-0.08902230064642191,0.3239389678372355,0.4072029888629913,0.1054763197898865,0.1512477546930313,0.004385687410831451,0.007206857204437256,-0.02028822898864746,2,0.1638378407036929,-0.03224314969923441,0.06357543722124576,0.9839084234233844,-0.08428073674440384,-0.318303108215332,-0.94423508644104,-18.91361236572266,-30.1724967956543,-30.729736328125,-1,2,1739075.20501225,4,1,1676782822.167879,0,0,0,0,0,0,0,0,0,1739073.650646,0,0.01057434,99.08162,1676782822.481812,0,182416158,0,0,1,1676782822.477204,1,0.82,1
1676782822.52423,2,1676782820.219883,34.04854871614292,-117.8141121245962,218.4661,-1,-1,-1,-1,16.2757682800293,35,-9999,1676782822.515538,-20.36635589599609,-29.16333389282227,-30.42117309570312,184.928955078125,173.4457855224609,10,1739075.55599825,-0.1223297119140625,-0.350616455078125,-0.8590545654296875,1739075.52737225,-0.3871224224567413,-0.6356648802757263,0.05252286419272423,1739075.55650625,-147.8313598632812,40.57778930664062,-324.8439331054688,1739075.51990425,0.1458936223956255,-0.1099591331502565,0.3134521050047255,-0.430942714214325,-0.6836728453636169,0.01598222926259041,0.03055337816476822,-0.00356060266494751,-0.06187081336975098,2,0.1593908156354549,-0.04277537193420371,0.06332571539041532,0.9842534794392723,-0.1043906956911087,-0.3083443641662598,-0.9455296993255615,-19.70717620849609,-29.89797973632812,-30.71585083007812,-1,2,1739075.20501225,4,1,1676782822.167879,0,0,0,0,0,0,0,0,0,1739073.650646,0,0.01057434,99.08162,1676782822.481812,0,182416158,0,0,1,1676782822.477204,1,0.82,1
1676782822.554994,3,1676782820.219883,34.04854871614292,-117.8141121245962,218.4661,-1,-1,-1,-1,16.2757682800293,35,-9999,1676782822.535364,-20.95594024658203,-29.22391510009766,-30.5479736328125,184.8001708984375,173.3170013427734,10,1739075.58960325,-0.114593505859375,-0.3187713623046875,-0.8704681396484375,1739075.56097725,-0.2232320159673691,-0.4198092520236969,0.2051859050989151,1739075.58652225,-148.1673431396484,40.30413818359375,-324.5554809570312,1739075.57964625,0.1530387193643829,-0.1424172343496418,0.2951444669780688,-0.1880079805850983,-0.3449685275554657,0.2103099226951599,0.01176026463508606,-0.04229763150215149,0.09326821565628052,2,0.1516151848033979,-0.0589574754906522,0.06499134298775738,0.9845370198672196,-0.1357989907264709,-0.2908780872821808,-0.9470736980438232,-20.80625152587891,-29.2536735534668,-30.22653198242188,-1,2,1739075.20501225,4,1,1676782822.167879,0,0,0,0,0,0,0,0,0,1739073.650646,0,0.01057434,99.08162,1676782822.481812,0,182416158,0,0,1,1676782822.477204,1,0.82,1
1676782822.589922,4,1676782820.219883,34.04854871614292,-117.8141121245962,218.4661,-1,-1,-1,-1,16.2757682800293,35,-9999,1676782822.575232,-21.29009246826172,-28.82988739013672,-30.46969604492188,184.5730438232422,173.0898742675781,10,1739075.62320825,-0.0160064697265625,-0.2970733642578125,-0.947784423828125,1739075.59458225,-0.2359400987625122,-0.3807361721992493,0.1754908561706543,1739075.61653725,-148.7067565917969,40.87199401855469,-324.7755737304688,1739075.57964625,0.1530387193643829,-0.1424172343496418,0.2951444669780688,-0.1880079805850983,-0.3449685275554657,0.2103099226951599,0.01176026463508606,-0.04229763150215149,0.09326821565628052,2,0.1516151848033979,-0.0589574754906522,0.06499134298775738,0.9845370198672196,-0.1357989907264709,-0.2908780872821808,-0.9470736980438232,-20.80625152587891,-29.2536735534668,-30.22653198242188,-1,2,1739075.20501225,4,1,1676782822.167879,0,0,0,0,0,0,0,0,0,1739073.650646,0,0.01057434,99.08162,1676782822.481812,0,182416158,0,0,1,1676782822.477204,1,0.82,1
1676782822.619984,5,1676782820.219883,34.04854871614292,-117.8141121245962,218.4661,-1,-1,-1,-1,16.2757682800293,35,-9999,1676782822.615196,-22.39572906494141,-27.6053466796875,-31.084228515625,184.9813842773438,173.4982147216797,10,1739075.65681425,-0.0442962646484375,-0.2240447998046875,-0.9132537841796875,1739075.62818625,-0.9580085277557373,-0.9782267212867737,0.009781790897250175,1739075.64655125,-149.7541046142578,41.95890808105469,-325.5688781738281,1739075.63938825,0.1530528002588335,-0.1818483597234672,0.2611224363311546,-1.378380179405212,-1.214651584625244,0.03627537190914154,0.1774332225322723,-0.03455954790115356,0.004644811153411865,2,0.1361560107990636,-0.0798504930689591,0.06370135626248091,0.9854073602090189,-0.1747171729803085,-0.2581650912761688,-0.9501708745956421,-21.92667388916016,-27.93421936035156,-30.88497924804688,-1,2,1739075.20501225,4,1,1676782822.167879,0,0,0,0,0,0,0,0,0,1739073.650646,0,0.01057434,99.08162,1676782822.481812,0,182416158,0,0,1,1676782822.477204,1,0.82,1
1676782822.654788,6,1676782820.219883,34.04854871614292,-117.8141121245962,218.4661,-1,-1,-1,-1,16.2757682800293,35,-9999,1676782822.634877,-23.28955841064453,-26.46582412719727,-31.4952392578125,185.2818603515625,173.7986907958984,10,1739075.69041925,-0.1780853271484375,-0.2320404052734375,-0.9771728515625,1739075.66179225,-2.09184193611145,-1.427788257598877,0.07623538374900818,1739075.67656625,-151.5147094726562,43.91119384765625,-326.3722534179688,1739075.63938825,0.1530528002588335,-0.1818483597234672,0.2611224363311546,-1.378380179405212,-1.214651584625244,0.03627537190914154,0.1774332225322723,-0.03455954790115356,0.004644811153411865,2,0.1361560107990636,-0.0798504930689591,0.06370135626248091,0.9854073602090189,-0.1747171729803085,-0.2581650912761688,-0.9501708745956421,-21.92667388916016,-27.93421936035156,-30.88497924804688,-1,2,1739075.20501225,4,1,1676782822.167879,0,0,0,0,0,0,0,0,0,1739073.650646,0,0.01057434,99.08162,1676782822.481812,0,182416158,0,0,1,1676782822.477204,1,0.82,1
1676782822.689609,7,1676782820.219883,34.04854871614292,-117.8141121245962,218.4661,-1,-1,-1,-1,16.2757682800293,35,-9999,1676782822.674696,-25.25472259521484,-24.21003723144531,-32.67242431640625,186.2629547119141,174.77978515625,10,1739075.72402325,-0.3978118896484375,-0.2890472412109375,-0.848968505859375,1739075.69539725,-2.11389422416687,-1.055076479911804,-0.05685742199420929,1739075.70658125,-152.5781097412109,45.43344116210938,-327.3468017578125,1739075.69913125,0.127320540646128,-0.254701457248176,0.1415921040492702,-2.036614179611206,-0.9235125184059143,-0.08936423808336258,0.02438314259052277,-0.1046996861696243,-0.03861957788467407,2,0.07808155109552183,-0.1219683532637128,0.05397815817683338,0.9879844597360554,-0.2494350671768188,-0.1411194652318954,-0.9580540060997009,-24.87364959716797,-24.73804473876953,-31.99627685546875,-1,2,1739075.20501225,4,1,1676782822.167879,0,0,0,0,0,0,0,0,0,1739073.650646,0,0.01057434,99.08162,1676782822.481812,0,182416158,0,0,1,1676782822.477204,1,0.82,1
1676782822.724387,8,1676782820.219883,34.04854871614292,-117.8141121245962,218.4661,-1,-1,-1,-1,16.2757682800293,35,-9999,1676782822.714616,-25.40018463134766,-23.25357818603516,-33.4310302734375,187.2322845458984,175.7491149902344,10,1739075.75762825,-0.269866943359375,-0.1150970458984375,-0.8275909423828125,1739075.72900225,-0.7202857136726379,-0.4888802170753479,-0.405223935842514,1739075.73660025,-152.3763427734375,45.80496215820312,-327.8715209960938,1739075.69913125,0.127320540646128,-0.254701457248176,0.1415921040492702,-2.036614179611206,-0.9235125184059143,-0.08936423808336258,0.02438314259052277,-0.1046996861696243,-0.03861957788467407,2,0.07808155109552183,-0.1219683532637128,0.05397815817683338,0.9879844597360554,-0.2494350671768188,-0.1411194652318954,-0.9580540060997009,-24.87364959716797,-24.73804473876953,-31.99627685546875,-1,2,1739075.20501225,4,1,1676782822.167879,0,0,0,0,0,0,0,0,0,1739073.650646,0,0.01057434,99.08162,1676782822.481812,0,182416158,0,0,1,1676782822.477204,1,0.82,1
1676782822.754356,9,1676782820.219883,34.04854871614292,-117.8141121245962,218.4661,-1,-1,-1,-1,16.2757682800293,35,-9999,1676782822.734866,-25.19403839111328,-23.50357818603516,-33.1455078125,186.6950225830078,175.2118530273438,10,1739075.791239625,-0.33807373046875,-0.1648101806640625,-1.149276733398438,1739075.76260725,0.55327969789505,0.4010536670684814,0.5009866952896118,1739075.76661725,-152.2930145263672,45.90066528320312,-327.4564514160156,1739075.75887325,0.1037028890522988,-0.2715779649672327,0.102135709306208,0.4979353249073029,0.3870344161987305,0.4008748829364777,0.001427292823791504,-0.0009165853261947632,0.1894228458404541,2,0.05751474610993014,-0.1323926316964448,0.04438330926191664,0.9885314717374307,-0.2668539583683014,-0.101958230137825,-0.9583284854888916,-25.37703704833984,-23.43024444580078,-33.38284301757812,-1,2,1739075.20501225,4,1,1676782822.167879,0,0,0,0,0,0,0,0,0,1739073.650646,0,0.01057434,99.08162,1676782822.481812,0,182416158,0,0,1,1676782822.477204,1,0.82,1
1676782822.789151,10,1676782822.717027,34.04853106604316,-117.8139692390341,218.4919,-1,-1,-1,-1,16.98673057556152,35,-9999,1676782822.782501,-25.89073944091797,-23.0229377746582,-33.08828735351562,184.3717041015625,172.8885345458984,10,1739075.824844625,-0.2985687255859375,0.035675048828125,-1.048538208007812,1739075.796218625,0.2024545669555664,0.01793745532631874,1.118852019309998,1739075.796638625,-152.7611541748047,46.38536071777344,-327.3593139648438,1739075.818620625,0.16032437290587,-0.2705551732107357,0.1049108234946456,-0.07204540818929672,-0.02703957259654999,0.9525895714759827,-0.1137044131755829,0.0705845057964325,-0.1367376446723938,2,0.06257018628741183,-0.1300872201718138,0.07218717625579213,0.9868896718316161,-0.2657969892024994,-0.1047184839844704,-0.9583245515823364,-26.29969024658203,-22.80459976196289,-32.51016235351562,-1,2,1739075.20501225,4,1,1676782822.167879,0,0,0,0,0,0,0,0,0,1739073.650646,0,0.01057434,99.08162,1676782822.481812,0,182416158,0,0,1,1676782822.477204,1,0.82,1
1676782822.82382,11,1676782822.717027,34.04853106604316,-117.8139692390341,218.4919,-1,-1,-1,-1,16.98673057556152,35,-9999,1676782822.814318,-26.62129974365234,-22.39904403686523,-33.148193359375,183.0020751953125,171.5189056396484,10,1739075.858449625,-0.1985626220703125,0.0833892822265625,-0.9569244384765625,1739075.829823625,-0.01278636883944273,-0.01792334020137787,0.5886936187744141,1739075.856669625,-153.94287109375,47.12484741210938,-327.4756469726562,1739075.818620625,0.16032437290587,-0.2705551732107357,0.1049108234946456,-0.07204540818929672,-0.02703957259654999,0.9525895714759827,-0.1137044131755829,0.0705845057964325,-0.1367376446723938,2,0.06257018628741183,-0.1300872201718138,0.07218717625579213,0.9868896718316161,-0.2657969892024994,-0.1047184839844704,-0.9583245515823364,-26.29969024658203,-22.80459976196289,-32.51016235351562,-1,2,1739075.20501225,4,1,1676782822.167879,0,0,0,0,0,0,0,0,0,1739073.650646,0,0.01057434,99.08162,1676782822.481812,0,182416158,0,0,1,1676782822.477204,1,0.82,1
1676782822.858658,12,1676782822.717027,34.04853106604316,-117.8139692390341,218.4919,-1,-1,-1,-1,16.98673057556152,35,-9999,1676782822.853919,-26.45746612548828,-23.64313125610352,-31.91705322265625,183.9153747558594,172.4322052001953,10,1739075.892053625,-0.282867431640625,-0.0952911376953125,-0.976409912109375,1739075.863427625,0.5839869976043701,-0.04250724613666534,-0.4512598514556885,1739075.886685625,-153.6011199951172,45.56236267089844,-326.078125,1739075.878363625,0.1653404681249541,-0.2736374805265385,0.1229119800567651,0.860750675201416,-0.04171616956591606,-0.6677913069725037,0.05982258915901184,0.1522657573223114,0.04854840040206909,2,0.07187704069342782,-0.1306456455866806,0.07330174359129066,0.9860995976908182,-0.2681966722011566,-0.1226027309894562,-0.9555308222770691,-26.52816009521484,-23.07022094726562,-32.53109741210938,-1,2,1739075.20501225,4,1,1676782822.167879,0,0,0,0,0,0,0,0,0,1739073.650646,0,0.01057434,99.08162,1676782822.481812,0,182416158,0,0,1,1676782822.477204,1,0.82,1
1676782822.889737,13,1676782822.717027,34.04853106604316,-117.8139692390341,218.4919,-1,-1,-1,-1,16.98673057556152,35,-9999,1676782822.874066,-26.29007720947266,-24.71802520751953,-31.57125854492188,184.4000854492188,172.9169158935547,10,1739075.925660625,-0.3187713623046875,-0.21826171875,-0.9670867919921875,1739075.897032625,1.015170931816101,-0.3559069633483887,-0.5594323873519897,1739075.916700625,-153.5000610351562,44.61714172363281,-325.8665161132812,1739075.878363625,0.1653404681249541,-0.2736374805265385,0.1229119800567651,0.860750675201416,-0.04171616956591606,-0.6677913069725037,0.05982258915901184,0.1522657573223114,0.04854840040206909,2,0.07187704069342782,-0.1306456455866806,0.07330174359129066,0.9860995976908182,-0.2681966722011566,-0.1226027309894562,-0.9555308222770691,-26.52816009521484,-23.07022094726562,-32.53109741210938,-1,2,1739075.20501225,4,1,1676782822.167879,0,0,0,0,0,0,0,0,0,1739073.650646,0,0.01057434,99.08162,1676782822.481812,0,182416158,0,0,1,1676782822.477204,1,0.82,1
1676782822.928305,14,1676782822.717027,34.04853106604316,-117.8139692390341,218.4919,-1,-1,-1,-1,16.98673057556152,35,-9999,1676782822.913675,-26.61449432373047,-25.28295516967773,-30.59268188476562,184.3621520996094,172.8789825439453,10,1739075.959264625,-0.33905029296875,-0.1927642822265625,-0.828521728515625,1739075.930638625,0.6852912902832031,-0.3340072631835938,0.01536510791629553,1739075.946716625,-153.9014129638672,44.10073852539062,-324.9942016601562,1739075.938105625,0.1590431929101,-0.2966964111695458,0.1780420047843986,0.6358636617660522,-0.07545165717601776,0.06406871229410172,-0.03057262301445007,-0.03734421730041504,0.03716838359832764,2,0.09934391680780084,-0.1397694322435372,0.06515538530088338,0.983031165544995,-0.2877410054206848,-0.1771028637886047,-0.9411906003952026,-26.32506561279297,-25.1579704284668,-30.60238647460938,-1,2,1739075.20501225,4,1,1676782822.167879,0,0,0,0,0,0,0,0,0,1739073.650646,0,0.01057434,99.08162,1676782822.481812,0,182416158,0,0,1,1676782822.477204,1,0.82,1
1676782822.960937,15,1676782822.717027,34.04853106604316,-117.8139692390341,218.4919,-1,-1,-1,-1,16.98673057556152,35,-9999,1676782822.95351,-26.39954376220703,-26.20517730712891,-30.30593872070312,184.0091552734375,172.5259857177734,10,1739075.992869625,-0.3009033203125,-0.158538818359375,-0.9835968017578125,1739075.964243625,0.608803927898407,0.4045914113521576,0.06020634993910789,1739075.976732625,-153.5381622314453,43.480712890625,-325.00146484375,1739075.938105625,0.1590431929101,-0.2966964111695458,0.1780420047843986,0.6358636617660522,-0.07545165717601776,0.06406871229410172,-0.03057262301445007,-0.03734421730041504,0.03716838359832764,2,0.09934391680780084,-0.1397694322435372,0.06515538530088338,0.983031165544995,-0.2877410054206848,-0.1771028637886047,-0.9411906003952026,-26.32506561279297,-25.1579704284668,-30.60238647460938,-1,2,1739075.20501225,4,1,1676782822.167879,0,0,0,0,0,0,0,0,0,1739073.650646,0,0.01057434,99.08162,1676782822.481812,0,182416158,0,0,1,1676782822.477204,1,0.82,1
1676782822.993395,16,1676782822.717027,34.04853106604316,-117.8139692390341,218.4919,-1,-1,-1,-1,16.98673057556152,35,-9999,1676782822.973391,-26.04131317138672,-26.38942718505859,-30.07098388671875,184.0251922607422,172.5420227050781,10,1739076.026474625,-0.214263916015625,-0.2055511474609375,-0.9171142578125,1739075.997848625,0.4099028408527374,0.08427999168634415,-0.07347501814365387,1739076.006749625,-153.1801147460938,43.02354431152344,-324.5494384765625,1739075.997848625,0.169959664082955,-0.2860631678379268,0.2095537786780158,0.4039402306079865,0.07219089567661285,-0.07655572891235352,-0.02679085731506348,0.04537996649742126,-0.04958575963973999,2,0.1151762082114134,-0.1324647907191989,0.06869587851255093,0.9820736188194019,-0.2760046124458313,-0.2080234587192535,-0.9383750557899475,-26.12418365478516,-26.33803558349609,-29.88729858398438,-1,2,1739075.20501225,4,1,1676782822.167879,0,0,0,0,0,0,0,0,0,1739073.650646,0,0.01057434,99.08162,1676782822.481812,0,182416158,0,0,1,1676782822.477204,1,0.82,1
1676782823.023228,17,1676782822.717027,34.04853106604316,-117.8139692390341,218.4919,-1,-1,-1,-1,16.98673057556152,35,-9999,1676782823.013179,-25.27016448974609,-26.77870178222656,-30.34548950195312,184.6252593994141,173.14208984375,10,1739076.060080625,-0.269134521484375,-0.2810211181640625,-1.04193115234375,1739076.031452625,0.03381362184882164,0.271935909986496,-0.3564864695072174,1739076.036767625,-152.6028137207031,42.61331176757812,-324.8406066894531,1739075.997848625,0.169959664082955,-0.2860631678379268,0.2095537786780158,0.4039402306079865,0.07219089567661285,-0.07655572891235352,-0.02679085731506348,0.04537996649742126,-0.04958575963973999,2,0.1151762082114134,-0.1324647907191989,0.06869587851255093,0.9820736188194019,-0.2760046124458313,-0.2080234587192535,-0.9383750557899475,-26.12418365478516,-26.33803558349609,-29.88729858398438,-1,2,1739075.20501225,4,1,1676782822.167879,0,0,0,0,0,0,0,0,0,1739073.650646,0,0.01057434,99.08162,1676782822.481812,0,182416158,0,0,1,1676782822.477204,1,0.82,1
1676782823.057941,18,1676782822.717027,34.04853106604316,-117.8139692390341,218.4919,-1,-1,-1,-1,16.98673057556152,35,-9999,1676782823.053033,-25.49018096923828,-26.31335830688477,-30.820068359375,184.7929382324219,173.3097686767578,10,1739076.093685625,-0.2841796875,-0.1674957275390625,-0.86785888671875,1739076.065059625,-0.3914689719676971,-0.04137380421161652,-0.02433596551418304,1739076.066782625,-152.4973449707031,43.00038146972656,-324.9991455078125,1739076.057590625,0.1553622971535483,-0.272615668589024,0.2168179919337679,-0.3590312898159027,0.006603083573281765,-0.1153654381632805,-0.002189338207244873,-0.06069472432136536,-0.1006771922111511,2,0.1173531889246735,-0.1263624987902046,0.06177378604488382,0.9830793351374217,-0.2629474103450775,-0.2151232063770294,-0.9405214786529541,-25.32353973388672,-26.73574066162109,-30.85391235351562,-1,2,1739075.20501225,4,1,1676782822.167879,0,0,0,0,0,0,0,0,0,1739073.650646,0,0.01057434,99.08162,1676782822.481812,0,182416158,0,0,1,1676782822.477204,1,0.82,1
1676782823.092744,19,1676782822.717027,34.04853106604316,-117.8139692390341,218.4919,-1,-1,-1,-1,16.98673057556152,35,-9999,1676782823.073062,-25.42765045166016,-26.34586715698242,-30.99752807617188,184.6426391601562,173.1594696044922,10,1739076.127290625,-0.181854248046875,-0.1765899658203125,-0.9241485595703125,1739076.098663625,-0.1624799966812134,0.1440804749727249,0.1555520445108414,1739076.126809625,-152.5848693847656,43.01109313964844,-325.3458862304688,1739076.117333625,0.1551800974797113,-0.2699182008945933,0.2014404917750484,0.07801439613103867,0.1246384009718895,0.1025933399796486,-0.01161220669746399,0.05196377635002136,0.06759530305862427,2,0.1097123551933446,-0.1257421463188977,0.06292984747359071,0.983967438431929,-0.2612607181072235,-0.2000809013843536,-0.9443042278289795,-25.50963592529297,-26.37331771850586,-30.77130126953125,-1,2,1739075.20501225,4,1,1676782822.167879,0,0,0,0,0,0,0,0,0,1739073.650646,0,0.01057434,99.08162,1676782822.481812,0,182416158,0,0,1,1676782822.477204,1,0.82,1
1676782823.132506,20,1676782822.717027,34.04853106604316,-117.8139692390341,218.4919,-1,-1,-1,-1,16.98673057556152,35,-9999,1676782823.112818,-25.45575714111328,-26.35652542114258,-30.36801147460938,184.4229888916016,172.9398193359375,10,1739076.160894625,-0.267547607421875,-0.2482147216796875,-0.9720611572265625,1739076.132268625,0.2670513987541199,-0.01260287687182426,0.02861486747860909,1739076.156823625,-153.103759765625,43.14027404785156,-325.5734252929688,1739076.117333625,0.1551800974797113,-0.2699182008945933,0.2014404917750484,0.07801439613103867,0.1246384009718895,0.1025933399796486,-0.01161220669746399,0.05196377635002136,0.06759530305862427,2,0.1097123551933446,-0.1257421463188977,0.06292984747359071,0.983967438431929,-0.2612607181072235,-0.2000809013843536,-0.9443042278289795,-25.50963592529297,-26.37331771850586,-30.77130126953125,-1,2,1739075.20501225,4,1,1676782822.167879,0,0,0,0,0,0,0,0,0,1739073.650646,0,0.01057434,99.08162,1676782822.481812,0,182416158,0,0,1,1676782822.477204,1,0.82,1
1676782823.157655,21,1676782822.717027,34.04853106604316,-117.8139692390341,218.4919,-1,-1,-1,-1,16.98673057556152,35,-9999,1676782823.152592,-25.78046417236328,-26.51902770996094,-30.654052734375,183.9694519042969,172.4862823486328,10,1739076.194501625,-0.263275146484375,-0.2227325439453125,-0.9245147705078125,1739076.165873625,0.4071193039417267,-0.1698146015405655,0.1813639253377914,1739076.186840625,-152.9109039306641,42.85591125488281,-325.0914306640625,1739076.177075625,0.165687780805909,-0.2783956785936196,0.2180628578354529,0.3666996359825134,-0.03886625170707703,0.1860120296478271,-0.007420927286148071,-0.01895183324813843,0.007758498191833496,2,0.118806592234111,-0.1285345219825642,0.06641592064951873,0.9823202380721262,-0.2683054208755493,-0.2163387686014175,-0.9387277364730835,-25.88437652587891,-26.37203979492188,-30.57363891601562,-1,2,1739075.20501225,4,1,1676782822.167879,0,0,0,0,0,0,0,0,0,1739073.650646,0,0.01057434,99.08162,1676782822.481812,0,182416158,0,0,1,1676782822.477204,1,0.82,1
1676782823.192435,22,1676782822.717027,34.04853106604316,-117.8139692390341,218.4919,-1,-1,-1,-1,16.98673057556152,35,-9999,1676782823.172853,-25.78101348876953,-26.62631607055664,-29.889892578125,183.7496185302734,172.2664489746094,10,1739076.228106625,-0.3187103271484375,-0.238861083984375,-1.059066772460938,1739076.199479625,0.2088189870119095,0.1356222778558731,0.144207775592804,1739076.216856625,-153.0175476074219,43.07203674316406,-324.5007934570312,1739076.177075625,0.165687780805909,-0.2783956785936196,0.2180628578354529,0.3666996359825134,-0.03886625170707703,0.1860120296478271,-0.007420927286148071,-0.01895183324813843,0.007758498191833496,2,0.118806592234111,-0.1285345219825642,0.06641592064951873,0.9823202380721262,-0.2683054208755493,-0.2163387686014175,-0.9387277364730835,-25.88437652587891,-26.37203979492188,-30.57363891601562,-1,2,1739075.20501225,4,1,1676782822.167879,0,0,0,0,0,0,0,0,0,1739073.650646,0,0.01057434,99.08162,1676782822.481812,0,182416158,0,0,1,1676782822.477204,1,0.82,1
1676782823.227417,23,1676782822.717027,34.04853106604316,-117.8139692390341,218.4919,-1,-1,-1,-1,16.98673057556152,35,-9999,1676782823.212319,-26.32241058349609,-26.25391387939453,-30.194091796875,183.3168640136719,171.8336944580078,10,1739076.261710625,-0.2499237060546875,-0.195098876953125,-0.94635009765625,1739076.233084625,-0.05794718861579895,-0.2866480052471161,0.243247002363205,1739076.246874625,-153.6241760253906,43.20243835449219,-324.5263671875,1739076.236818625,0.1784028264921701,-0.2842802512942691,0.2229009427714432,-0.08622559905052185,-0.3079330921173096,0.2368496060371399,-0.04235950112342834,-0.0140325129032135,-0.1169224977493286,2,0.1222019069134279,-0.1304154470971627,0.07194466424480223,0.9812658438593873,-0.2735280096530914,-0.22105972468853,-0.9361169934272766,-25.99568939208984,-26.31155776977539,-30.37777709960938,-1,2,1739075.20501225,4,1,1676782822.167879,0,0,0,0,0,0,0,0,0,1739074.651228,0,0.01321411,99.0816,1676782822.481812,0,182416158,0,0,1,1676782822.477204,1,0.82,1
1676782823.261869,24,1676782822.717027,34.04853106604316,-117.8139692390341,218.4919,-1,-1,-1,-1,16.98673057556152,35,-9999,1676782823.2521,-26.50852203369141,-26.20555877685547,-30.04052734375,183.2538146972656,171.7706451416016,10,1739076.295315625,-0.228973388671875,-0.21600341796875,-0.92218017578125,1739076.266689625,-0.2052213251590729,-0.1957167685031891,0.0768124908208847,1739076.276892625,-153.7090301513672,43.39039611816406,-324.6333312988281,1739076.236818625,0.1784028264921701,-0.2842802512942691,0.2229009427714432,-0.08622559905052185,-0.3079330921173096,0.2368496060371399,-0.04235950112342834,-0.0140325129032135,-0.1169224977493286,2,0.1222019069134279,-0.1304154470971627,0.07194466424480223,0.9812658438593873,-0.2735280096530914,-0.22105972468853,-0.9361169934272766,-25.99568939208984,-26.31155776977539,-30.37777709960938,-1,2,1739075.20501225,4,1,1676782822.167879,0,0,0,0,0,0,0,0,0,1739074.651228,0,0.01321411,99.0816,1676782822.481812,0,182416158,0,0,1,1676782822.477204,1,0.82,1
1676782823.292041,25,1676782822.717027,34.04853106604316,-117.8139692390341,218.4919,-1,-1,-1,-1,16.98673057556152,35,-9999,1676782823.272575,-26.62047576904297,-25.91457366943359,-29.91302490234375,183.3874053955078,171.9042358398438,10,1739076.328921625,-0.2698211669921875,-0.236907958984375,-0.8697052001953125,1739076.300294625,-0.215671569108963,-0.06927601248025894,-0.0813065767288208,1739076.306908625,-153.7459259033203,43.52009582519531,-324.2435913085938,1739076.296560625,0.1790728917742396,-0.2978025430956285,0.2100240765509802,-0.2462743669748306,-0.1102780401706696,-0.07338841259479523,0.05113264918327332,-0.005551666021347046,-0.004201769828796387,2,0.1164361125892883,-0.1376745537415673,0.07245250937347747,0.9809378555668612,-0.2869725525379181,-0.2084834426641464,-0.9349766969680786,-26.73691558837891,-25.917724609375,-30.10104370117188,-1,2,1739075.20501225,4,1,1676782822.167879,0,0,0,0,0,0,0,0,0,1739074.651228,0,0.01321411,99.0816,1676782822.481812,0,182416158,0,0,1,1676782822.477204,1,0.82,1
1676782823.327826,26,1676782822.717027,34.04853106604316,-117.8139692390341,218.4919,-1,-1,-1,-1,16.98673057556152,35,-9999,1676782823.3119,-26.55963897705078,-25.74740982055664,-29.608154296875,183.5869750976562,172.1038055419922,10,1739076.362526625,-0.2935028076171875,-0.2321014404296875,-0.950531005859375,1739076.333900625,0.02711497433483601,0.03215287625789642,-0.06941156834363937,1739076.336924625,-154.0350341796875,43.59461975097656,-324.0243530273438,1739076.356303625,0.1736304302263556,-0.2982117970513526,0.2088490910637049,0.1237551718950272,-0.06988062709569931,-0.003956046421080828,0.02727979421615601,-0.02778860926628113,0.006229162216186523,2,0.1155004959276866,-0.1382508471756313,0.0698508720515077,0.9811560555066715,-0.2874269187450409,-0.2073341310024261,-0.9350926876068115,-26.63544464111328,-25.89381790161133,-29.680908203125,-1,2,1739075.20501225,4,1,1676782822.167879,0,0,0,0,0,0,0,0,0,1739074.651228,0,0.01321411,99.0816,1676782822.481812,0,182416158,0,0,1,1676782822.477204,1,0.82,1
1676782823.371819,27,1676782822.717027,34.04853106604316,-117.8139692390341,218.4919,-1,-1,-1,-1,16.98673057556152,35,-9999,1676782823.351806,-26.50740814208984,-25.88553619384766,-29.81692504882812,183.5381927490234,172.0550231933594,10,1739076.396131625,-0.2915496826171875,-0.23785400390625,-0.898712158203125,1739076.367505625,0.2042095959186554,0.01073493622243404,0.0007251787465065718,1739076.396954625,-153.7943420410156,43.18197631835938,-324.1077880859375,1739076.356303625,0.1736304302263556,-0.2982117970513526,0.2088490910637049,0.1237551718950272,-0.06988062709569931,-0.003956046421080828,0.02727979421615601,-0.02778860926628113,0.006229162216186523,2,0.1155004959276866,-0.1382508471756313,0.0698508720515077,0.9811560555066715,-0.2874269187450409,-0.2073341310024261,-0.9350926876068115,-26.63544464111328,-25.89381790161133,-29.680908203125,-1,2,1739075.20501225,4,1,1676782822.167879,0,0,0,0,0,0,0,0,0,1739074.651228,0,0.01321411,99.0816,1676782822.481812,0,182416158,0,0,1,1676782822.477204,1,0.82,1
1676782823.396331,28,1676782822.717027,34.04853106604316,-117.8139692390341,218.4919,-1,-1,-1,-1,16.98673057556152,35,-9999,1676782823.391484,-26.53426361083984,-26.54761123657227,-29.2750244140625,183.2681427001953,171.7849731445312,10,1739076.429736625,-0.229461669921875,-0.2320404052734375,-0.9678802490234375,1739076.401110625,0.4047956764698029,0.2325016856193542,0.05214975401759148,1739076.426970625,-153.8486785888672,42.918212890625,-323.6955261230469,1739076.416045625,0.1794556981538403,-0.2919759655329817,0.2260539618617925,0.3198336660861969,0.1631434112787247,0.06972780823707581,0.00239989161491394,-0.02307407557964325,-0.008841753005981445,2,0.124089849843136,-0.1339612804034711,0.07174758426034061,0.9805654155058776,-0.2805218994617462,-0.2241336405277252,-0.9333121776580811,-26.17572784423828,-26.62907028198242,-29.2369384765625,-1,2,1739075.20501225,4,1,1676782822.167879,0,0,0,0,0,0,0,0,0,1739074.651228,0,0.01321411,99.0816,1676782822.481812,0,182416158,0,0,1,1676782822.477204,1,0.82,1
1676782823.426466,29,1676782822.717027,34.04853106604316,-117.8139692390341,218.4919,-1,-1,-1,-1,16.98673057556152,35,-9999,1676782823.411456,-26.48358917236328,-26.83150863647461,-29.76126098632812,183.1900482177734,171.7068786621094,10,1739076.463342625,-0.25457763671875,-0.238739013671875,-0.93975830078125,1739076.434714625,0.09797050803899765,0.08341073989868164,0.05129434540867805,1739076.456983625,-153.4548187255859,42.59744262695312,-324.2174682617188,1739076.416045625,0.1794556981538403,-0.2919759655329817,0.2260539618617925,0.3198336660861969,0.1631434112787247,0.06972780823707581,0.00239989161491394,-0.02307407557964325,-0.008841753005981445,2,0.124089849843136,-0.1339612804034711,0.07174758426034061,0.9805654155058776,-0.2805218994617462,-0.2241336405277252,-0.9333121776580811,-26.17572784423828,-26.62907028198242,-29.2369384765625,-1,2,1739075.20501225,4,1,1676782822.167879,0,0,0,0,0,0,0,0,0,1739074.651228,0,0.01321411,99.0816,1676782822.481812,0,182416158,0,0,1,1676782822.477204,1,0.82,1
1676782823.461206,30,1676782822.717027,34.04853106604316,-117.8139692390341,218.4919,-1,-1,-1,-1,16.98673057556152,35,-9999,1676782823.442873,-26.32729339599609,-26.47111892700195,-29.06195068359375,183.1220550537109,171.6388854980469,10,1739076.496947625,-0.2552337646484375,-0.229217529296875,-0.9939117431640625,1739076.468321625,-6.391586794052273e-06,0.03726907446980476,0.06792072951793671,1739076.486997625,-153.8205718994141,42.76835632324219,-323.22998046875,1739076.475788625,0.1831619123256929,-0.2888984934038084,0.2291792990841686,0.0117784645408392,-0.03688597679138184,0.06258588284254074,0.01952806115150452,-0.01246099174022675,-0.01792097091674805,2,0.1257521480215798,-0.1320563682472801,0.07351717658488283,0.9804809878497751,-0.2774474024772644,-0.2271783649921417,-0.933495044708252,-26.44391632080078,-27.00251388549805,-29.47811889648438,-1,2,1739075.20501225,4,1,1676782822.167879,0,0,0,0,0,0,0,0,0,1739074.651228,0,0.01321411,99.0816,1676782822.481812,0,182416158,0,0,1,1676782822.477204,1,0.82,1
1676782823.495893,31,1676782822.717027,34.04853106604316,-117.8139692390341,218.4919,-1,-1,-1,-1,16.98673057556152,35,-9999,1676782823.492146,-26.67772674560547,-26.66512298583984,-29.58065795898438,183.0934906005859,171.6103210449219,10,1739076.530552625,-0.3104400634765625,-0.2552947998046875,-0.896636962890625,1739076.501925625,0.03715988621115685,-0.2246829122304916,0.01320581696927547,1739076.517010625,-153.9514312744141,42.59457397460938,-323.8221435546875,1739076.475788625,0.1831619123256929,-0.2888984934038084,0.2291792990841686,0.0117784645408392,-0.03688597679138184,0.06258588284254074,0.01952806115150452,-0.01246099174022675,-0.01792097091674805,2,0.1257521480215798,-0.1320563682472801,0.07351717658488283,0.9804809878497751,-0.2774474024772644,-0.2271783649921417,-0.933495044708252,-26.44391632080078,-27.00251388549805,-29.47811889648438,-1,2,1739075.20501225,4,1,1676782822.167879,0,0,0,0,0,0,0,0,0,1739074.651228,0,0.01321411,99.0816,1676782822.481812,0,182416158,0,0,1,1676782822.477204,1,0.82,1
1676782823.530905,32,1676782822.717027,34.04853106604316,-117.8139692390341,218.4919,-1,-1,-1,-1,16.98673057556152,35,-9999,1676782823.513054,-26.68874359130859,-26.61241149902344,-28.74380493164062,183.0263366699219,171.5431671142578,10,1739076.564157625,-0.2923583984375,-0.236602783203125,-0.9293670654296875,1739076.535530625,0.08400435745716095,-0.09690231084823608,0.07102704048156738,1739076.547026625,-153.9062042236328,42.82756042480469,-323.0148315429688,1739076.535530625,0.1840513649974994,-0.3012658019043314,0.2303529122872658,0.07803583890199661,-0.1089879646897316,0.0679510086774826,-0.01404139399528503,-0.02357104420661926,0.02304470539093018,2,0.1268387393238854,-0.1379976125422452,0.07308061853693243,0.9795549500593449,-0.2888914048671722,-0.2283211350440979,-0.9297372102737427,-26.57390594482422,-26.62889099121094,-29.08145141601562,-1,2,1739075.20501225,4,1,1676782822.167879,0,0,0,0,0,0,0,0,0,1739074.651228,0,0.01321411,99.0816,1676782822.481812,0,182416158,0,0,1,1676782822.477204,1,0.82,1
1676782823.57594,33,1676782822.717027,34.04853106604316,-117.8139692390341,218.4919,-1,-1,-1,-1,16.98673057556152,35,-9999,1676782823.570601,-26.73517608642578,-26.40685653686523,-29.77481079101562,182.4436798095703,170.9605102539062,10,1739076.597763625,-0.2623443603515625,-0.2884521484375,-0.9776611328125,1739076.569135625,-0.08362698554992676,0.1728532612323761,0.1098964065313339,1739076.577042625,-153.8567199707031,42.68446350097656,-323.8338928222656,1739076.535530625,0.1840513649974994,-0.3012658019043314,0.2303529122872658,0.07803583890199661,-0.1089879646897316,0.0679510086774826,-0.01404139399528503,-0.02357104420661926,0.02304470539093018,2,0.1268387393238854,-0.1379976125422452,0.07308061853693243,0.9795549500593449,-0.2888914048671722,-0.2283211350440979,-0.9297372102737427,-26.57390594482422,-26.62889099121094,-29.08145141601562,-1,2,1739075.20501225,4,1,1676782822.167879,0,0,0,0,0,0,0,0,0,1739074.651228,0,0.01321411,99.0816,1676782822.481812,0,182416158,0,0,1,1676782822.477204,1,0.82,1
1676782823.611547,34,1676782822.717027,34.04853106604316,-117.8139692390341,218.4919,-1,-1,-1,-1,16.98673057556152,35,-9999,1676782823.610637,-27.10666656494141,-26.32064819335938,-29.26052856445312,181.8296051025391,170.346435546875,10,1739076.631368625,-0.274200439453125,-0.2044525146484375,-0.9053497314453125,1739076.602741625,-0.05395644158124924,0.02526061609387398,0.3102268278598785,1739076.607058625,-153.8901824951172,43.0892333984375,-324.3196105957031,1739076.595273625,0.1905131548427597,-0.2976143750465892,0.2257659552730255,-0.1378567516803741,0.03328243643045425,0.2727504074573517,0.03659212589263916,-0.05915188789367676,-0.06398069858551025,2,0.1249050077868821,-0.1360517534133,0.07683816015343437,0.9797880904494377,-0.2857987284660339,-0.2238529473543167,-0.93177729845047,-26.77732086181641,-26.56438064575195,-29.42434692382812,-1,2,1739075.20501225,4,1,1676782822.167879,0,0,0,0,0,0,0,0,0,1739074.651228,0,0.01321411,99.0816,1676782822.481812,0,182416158,0,0,1,1676782822.477204,1,0.82,1
1676782823.630237,35,1676782822.717027,34.04853106604316,-117.8139692390341,218.4919,-1,-1,-1,-1,16.98673057556152,35,-9999,1676782823.610637,-27.10666656494141,-26.32064819335938,-29.26052856445312,181.8296051025391,170.346435546875,10,1739076.664973625,-0.2534027099609375,-0.1828765869140625,-0.933746337890625,1739076.636346625,0.4688236713409424,0.1176786944270134,0.1240364611148834,1739076.637070625,-154.2963714599609,42.99195861816406,-323.5062866210938,1739076.655015625,0.2057781274951908,-0.2963596512988034,0.2378262981602109,0.5154598355293274,0.222826287150383,-0.06826983392238617,0.02713686227798462,0.06627906858921051,0.003994107246398926,2,0.1317690297627407,-0.1337692956405351,0.08344259602366405,0.9786623701883559,-0.283820241689682,-0.2355906665325165,-0.9294853806495667,-27.10666656494141,-26.32064819335938,-29.26052856445312,-1,2,1739075.20501225,4,1,1676782822.167879,0,0,0,0,0,0,0,0,0,1739074.651228,0,0.01321411,99.0816,1676782822.481812,0,182416158,0,0,1,1676782822.477204,1,0.82,1
1676782823.665137,36,1676782822.717027,34.04853106604316,-117.8139692390341,218.4919,-1,-1,-1,-1,16.98673057556152,35,-9999,1676782823.650399,-26.80562591552734,-26.4773063659668,-28.86968994140625,181.9044494628906,170.4212799072266,10,1739076.698577625,-0.2779083251953125,-0.2306365966796875,-0.993682861328125,1739076.669951625,0.4419984519481659,0.2695390582084656,-0.166204422712326,1739076.697095625,-153.7563629150391,42.34877014160156,-323.2540283203125,1739076.655015625,0.2057781274951908,-0.2963596512988034,0.2378262981602109,0.5154598355293274,0.222826287150383,-0.06826983392238617,0.02713686227798462,0.06627906858921051,0.003994107246398926,2,0.1317690297627407,-0.1337692956405351,0.08344259602366405,0.9786623701883559,-0.283820241689682,-0.2355906665325165,-0.9294853806495667,-27.10666656494141,-26.32064819335938,-29.26052856445312,-1,2,1739075.20501225,4,1,1676782822.167879,0,0,0,0,0,0,0,0,0,1739074.651228,0,0.01321411,99.0816,1676782822.481812,0,182416158,0,0,1,1676782822.477204,1,0.82,1
1676782823.695016,37,1676782822.717027,34.04853106604316,-117.8139692390341,218.4919,-1,-1,-1,-1,16.98673057556152,35,-9999,1676782823.690293,-26.41097259521484,-27.00845718383789,-29.49365234375,182.4494476318359,170.9662780761719,10,1739076.732184625,-0.28668212890625,-0.2667694091796875,-0.959075927734375,1739076.703556625,-0.1539512127637863,0.04591289535164833,-0.2207896411418915,1739076.727111625,-153.1677093505859,42.67453002929688,-323.5023193359375,1739076.714758625,0.1975664656102547,-0.2855158203814012,0.250511502449955,-0.3573857545852661,-0.02806845121085644,-0.2250908762216568,-0.01044908165931702,0.003957197070121765,-0.06626838445663452,2,0.1369762545579418,-0.1282752911378209,0.07916726471225277,0.9790380700302908,-0.2728608548641205,-0.2478995323181152,-0.9295659065246582,-26.53324127197266,-26.97826766967773,-29.222900390625,-1,2,1739075.20501225,4,1,1676782822.167879,0,0,0,0,0,0,0,0,0,1739074.651228,0,0.01321411,99.0816,1676782822.481812,0,182416158,0,0,1,1676782822.477204,1,0.82,1
1676782823.730085,38,1676782823.674016,34.04852761204612,-117.813943696168,218.4913,-1,-1,-1,-1,15.87118148803711,35,-9999,1676782823.713815,-26.51540374755859,-26.80339050292969,-29.36517333984375,182.7552947998047,171.2721252441406,10,1739076.765789625,-0.2708740234375,-0.25958251953125,-0.8520050048828125,1739076.737162625,-0.4234442114830017,-0.04010481014847755,-0.193689838051796,1739076.757129625,-153.4373474121094,42.31425476074219,-323.9720458984375,1739076.714758625,0.1975664656102547,-0.2855158203814012,0.250511502449955,-0.3573857545852661,-0.02806845121085644,-0.2250908762216568,-0.01044908165931702,0.003957197070121765,-0.06626838445663452,2,0.1369762545579418,-0.1282752911378209,0.07916726471225277,0.9790380700302908,-0.2728608548641205,-0.2478995323181152,-0.9295659065246582,-26.53324127197266,-26.97826766967773,-29.222900390625,-1,2,1739075.20501225,4,1,1676782822.167879,0,0,0,0,0,0,0,0,0,1739074.651228,0,0.01321411,99.0816,1676782822.481812,0,182416158,0,0,1,1676782822.477204,1,0.82,1
1676782823.766316,39,1676782823.674016,34.04852761204612,-117.813943696168,218.4913,-1,-1,-1,-1,15.87118148803711,35,-9999,1676782823.75027,-26.21584320068359,-26.80842590332031,-30.06655883789062,183.0633087158203,171.5801391601562,10,1739076.799387625,-0.273681640625,-0.23284912109375,-0.91961669921875,1739076.770767625,0.1530934125185013,0.0201212465763092,-0.116148442029953,1739076.787147625,-152.7858734130859,42.24763488769531,-324.0538635253906,1739076.774501625,0.1823469060350554,-0.28313510881411,0.2393126938955171,0.2165630608797073,-0.01595316082239151,-0.1100857555866241,-0.002413362264633179,-0.02352419495582581,0.07489472627639771,2,0.1304404528238108,-0.1287447783355691,0.07271913764336901,0.9803683473664877,-0.2714056372642517,-0.2370349615812302,-0.9328201413154602,-26.10726165771484,-27.15470123291016,-29.60794067382812,-1,2,1739075.20501225,4,1,1676782822.167879,0,0,0,0,0,0,0,0,0,1739074.651228,0,0.01321411,99.0816,1676782822.481812,0,182416158,0,0,1,1676782822.477204,1,0.82,1
1676782823.803016,40,1676782823.674016,34.04852761204612,-117.813943696168,218.4913,-1,-1,-1,-1,15.87118148803711,35,-9999,1676782823.790116,-26.18488311767578,-27.9693717956543,-28.67315673828125,183.359375,171.8762054443359,10,1739076.832992625,-0.19012451171875,-0.1833038330078125,-0.9769287109375,1739076.804366625,0.5642854571342468,-0.1103169173002243,-0.152540534734726,1739076.817162625,-153.4186401367188,41.33796691894531,-322.9283447265625,1739076.774501625,0.1823469060350554,-0.28313510881411,0.2393126938955171,0.2165630608797073,-0.01595316082239151,-0.1100857555866241,-0.002413362264633179,-0.02352419495582581,0.07489472627639771,2,0.1304404528238108,-0.1287447783355691,0.07271913764336901,0.9803683473664877,-0.2714056372642517,-0.2370349615812302,-0.9328201413154602,-26.10726165771484,-27.15470123291016,-29.60794067382812,-1,2,1739075.20501225,4,1,1676782822.167879,0,0,0,0,0,0,0,0,0,1739074.651228,0,0.01321411,99.0816,1676782822.481812,0,182416158,0,0,1,1676782822.477204,1,0.82,1
1676782823.829692,41,1676782823.674016,34.04852761204612,-117.813943696168,218.4913,-1,-1,-1,-1,15.87118148803711,35,-9999,1676782823.80988,-25.81842803955078,-28.20040512084961,-28.73825073242188,183.9040222167969,172.4208526611328,10,1739076.866599625,-0.227783203125,-0.2572784423828125,-1.022445678710938,1739076.837971625,0.5410917401313782,-0.2648284733295441,-0.5678173899650574,1739076.847180625,-153.0592193603516,40.89845275878906,-322.7217407226562,1739076.834237625,0.177077509849714,-0.2885670192157929,0.2721956627552171,0.5604981184005737,-0.2197783887386322,-0.5301414132118225,0.07473006844520569,0.08464273810386658,-0.02746301889419556,2,0.1463385499925747,-0.1300234408626222,0.06726333534795059,0.9783427829826071,-0.2741014361381531,-0.2688468992710114,-0.9233578443527222,-25.92720794677734,-27.94289779663086,-29.02999877929688,-1,2,1739075.20501225,4,1,1676782822.167879,0,0,0,0,0,0,0,0,0,1739074.651228,0,0.01321411,99.0816,1676782822.481812,0,182416158,0,0,1,1676782822.477204,1,0.82,1
1676782823.864585,42,1676782823.674016,34.04852761204612,-117.813943696168,218.4913,-1,-1,-1,-1,15.87118148803711,35,-9999,1676782823.849685,-25.62717437744141,-29.37021636962891,-27.74307250976562,185.5607757568359,174.0776062011719,10,1739076.900204625,-0.35675048828125,-0.3622894287109375,-0.85870361328125,1739076.871577625,0.2519126534461975,-0.6815769672393799,-0.7031911611557007,1739076.877194625,-152.7764434814453,40.02784729003906,-322.0786743164062,1739076.893980625,0.1435518649327986,-0.311415872735662,0.3022738222551755,0.1922179311513901,-0.4633558988571167,-0.5294784307479858,-0.009380310773849487,-0.01673096418380737,-0.0001615285873413086,2,0.1593523330378483,-0.1422500976219138,0.04675011465039181,0.9758003444873311,-0.2925148606300354,-0.2976917028427124,-0.9087435007095337,-25.45301055908203,-29.59889602661133,-27.51022338867188,-1,2,1739075.20501225,4,1,1676782822.167879,0,0,0,0,0,0,0,0,0,1739074.651228,0,0.01321411,99.0816,1676782822.481812,0,182416158,0,0,1,1676782822.477204,1,0.82,1
1676782823.899288,43,1676782823.674016,34.04852761204612,-117.813943696168,218.4913,-1,-1,-1,-1,15.87118148803711,35,-9999,1676782823.889432,-25.65366363525391,-30.15091705322266,-26.99447631835938,186.3934936523438,174.9103240966797,10,1739076.933808625,-0.3137969970703125,-0.387481689453125,-0.8394927978515625,1739076.905182625,0.2328710705041885,-0.2775919437408447,-0.3324461281299591,1739076.907212625,-152.982177734375,39.24282836914062,-321.6985473632812,1739076.893980625,0.1435518649327986,-0.311415872735662,0.3022738222551755,0.1922179311513901,-0.4633558988571167,-0.5294784307479858,-0.009380310773849487,-0.01673096418380737,-0.0001615285873413086,2,0.1593523330378483,-0.1422500976219138,0.04675011465039181,0.9758003444873311,-0.2925148606300354,-0.2976917028427124,-0.9087435007095337,-25.45301055908203,-29.59889602661133,-27.51022338867188,-1,2,1739075.20501225,4,1,1676782822.167879,0,0,0,0,0,0,0,0,0,1739074.651228,0,0.01321411,99.0816,1676782822.481812,0,182416158,0,0,1,1676782822.477204,1,0.82,1
1676782823.933967,44,1676782823.674016,34.04852761204612,-117.813943696168,218.4913,-1,-1,-1,-1,15.87118148803711,35,-9999,1676782823.929519,-25.37622833251953,-30.18877792358398,-26.51058959960938,186.0319976806641,174.548828125,10,1739076.967413625,-0.2803497314453125,-0.31201171875,-0.902008056640625,1739076.938787625,0.2115111798048019,0.1859027594327927,0.1043485105037689,1739076.967248625,-152.3279724121094,39.33642578125,-321.2054443359375,1739076.953723625,0.1418309416315293,-0.3132445060484431,0.3164931154349885,0.193059504032135,0.3768236637115479,0.1196307018399239,0.00657188892364502,-0.0454842746257782,0.07327789068222046,2,0.1661810024317201,-0.142617248476432,0.04459520246901494,0.9747078772541515,-0.2928420603275299,-0.311235785484314,-0.9040883779525757,-25.33640289306641,-30.07978439331055,-26.3529052734375,-1,2,1739075.20501225,4,1,1676782822.167879,0,0,0,0,0,0,0,0,0,1739074.651228,0,0.01321411,99.0816,1676782822.481812,0,182416158,0,0,1,1676782822.477204,1,0.82,1
1676782823.967609,45,1676782823.674016,34.04852761204612,-117.813943696168,218.4913,-1,-1,-1,-1,15.87118148803711,35,-9999,1676782823.949423,-25.26712799072266,-30.43154525756836,-26.54641723632812,185.9112091064453,174.4280395507812,10,1739077.001020625,-0.2446746826171875,-0.2707366943359375,-1.00604248046875,1739076.972392625,0.1982560902833939,0.231731504201889,0.07094341516494751,1739076.997267625,-152.7039947509766,39.26872253417969,-320.4771728515625,1739076.953723625,0.1418309416315293,-0.3132445060484431,0.3164931154349885,0.193059504032135,0.3768236637115479,0.1196307018399239,0.00657188892364502,-0.0454842746257782,0.07327789068222046,2,0.1661810024317201,-0.142617248476432,0.04459520246901494,0.9747078772541515,-0.2928420603275299,-0.311235785484314,-0.9040883779525757,-25.33640289306641,-30.07978439331055,-26.3529052734375,-1,2,1739075.20501225,4,1,1676782822.167879,0,0,0,0,0,0,0,0,0,1739074.651228,0,0.01321411,99.0816,1676782822.481812,0,182416158,0,0,1,1676782822.477204,1,0.82,1
1676782824.00083,46,1676782823.674016,34.04852761204612,-117.813943696168,218.4913,-1,-1,-1,-1,15.87118148803711,35,-9999,1676782823.989175,-25.68878936767578,-30.27328872680664,-26.4090576171875,186.300048828125,174.8168792724609,10,1739077.034625625,-0.3068084716796875,-0.3346099853515625,-0.858642578125,1739077.005998625,-0.08728057891130447,-0.4260860681533813,-0.1332683116197586,1739077.027286625,-152.7884216308594,39.08807373046875,-320.4339599609375,1739077.013465625,0.1418517330996581,-0.3165496365624728,0.3213376062938241,-0.1270006448030472,-0.4161379635334015,-0.1307079493999481,0.04271596670150757,0.02607151865959167,-0.08021563291549683,2,0.1686073570293572,-0.1439982631204009,0.04392774140044897,0.9741182852687041,-0.2953557670116425,-0.3158359825611115,-0.9016721248626709,-25.47928619384766,-30.04050064086914,-26.65106201171875,-1,2,1739075.20501225,4,1,1676782822.167879,0,0,0,0,0,0,0,0,0,1739074.651228,0,0.01321411,99.0816,1676782822.481812,0,182416158,0,0,1,1676782822.477204,1,0.82,1
1676782824.033536,47,1676782823.674016,34.04852761204612,-117.813943696168,218.4913,-1,-1,-1,-1,15.87118148803711,35,-9999,1676782824.028927,-25.48999786376953,-30.579345703125,-26.38296508789062,186.5758209228516,175.0926513671875,10,1739077.068229625,-0.30615234375,-0.300689697265625,-0.8809814453125,1739077.039603625,0.01722346246242523,-0.1507210731506348,-0.08147488534450531,1739077.057306625,-152.5146942138672,38.67616271972656,-320.9296569824219,1739077.013465625,0.1418517330996581,-0.3165496365624728,0.3213376062938241,-0.1270006448030472,-0.4161379635334015,-0.1307079493999481,0.04271596670150757,0.02607151865959167,-0.08021563291549683,2,0.1686073570293572,-0.1439982631204009,0.04392774140044897,0.9741182852687041,-0.2953557670116425,-0.3158359825611115,-0.9016721248626709,-25.47928619384766,-30.04050064086914,-26.65106201171875,-1,2,1739075.20501225,4,1,1676782822.167879,0,0,0,0,0,0,0,0,0,1739074.651228,0,0.01321411,99.0816,1676782822.481812,0,182416158,0,0,1,1676782822.477204,1,0.82,1
1676782824.068587,48,1676782823.674016,34.04852761204612,-117.813943696168,218.4913,-1,-1,-1,-1,15.87118148803711,35,-9999,1676782824.048853,-25.17131805419922,-30.31341552734375,-26.67025756835938,186.7915954589844,175.3084259033203,10,1739077.101834625,-0.3076324462890625,-0.239837646484375,-0.866180419921875,1739077.073208625,0.2828202545642853,0.0004482100193854421,-0.2211092114448547,1739077.087325625,-151.8844146728516,38.64427185058594,-320.4032897949219,1739077.073208625,0.1353398813653579,-0.324290636283084,0.3269607956622742,0.2768445312976837,-0.01163320802152157,-0.2241796553134918,-0.004762589931488037,0.01823350787162781,0.01834297180175781,2,0.1710212129406604,-0.1480579871601422,0.03962758492628604,0.973273067913983,-0.3017560243606567,-0.3211663067340851,-0.8976611495018005,-25.59891510009766,-30.49127960205078,-26.14276123046875,-1,2,1739075.20501225,4,1,1676782822.167879,0,0,0,0,0,0,0,0,0,1739074.651228,0,0.01321411,99.0816,1676782822.481812,0,182416158,0,0,1,1676782822.477204,1,0.82,1
1676782824.0985,49,1676782823.674016,34.04852761204612,-117.813943696168,218.4913,-1,-1,-1,-1,15.87118148803711,35,-9999,1676782824.090095,-24.82796478271484,-31.13915252685547,-25.69473266601562,187.7391662597656,176.2559967041016,10,1739077.135441625,-0.3284454345703125,-0.3132171630859375,-0.9171905517578125,1739077.106813625,0.3975510895252228,0.2024252712726593,-0.5563090443611145,1739077.117344625,-151.9505615234375,38.17814636230469,-319.9545288085938,1739077.073208625,0.1353398813653579,-0.324290636283084,0.3269607956622742,0.2768445312976837,-0.01163320802152157,-0.2241796553134918,-0.004762589931488037,0.01823350787162781,0.01834297180175781,2,0.1710212129406604,-0.1480579871601422,0.03962758492628604,0.973273067913983,-0.3017560243606567,-0.3211663067340851,-0.8976611495018005,-25.59891510009766,-30.49127960205078,-26.14276123046875,-1,2,1739077.116770625,4,1,1676782824.079637,0,0,0,0,0,0,0,0,0,1739074.651228,0,0.01321411,99.0816,1676782822.481812,0,182416158,0,0,1,1676782822.477204,1,0.82,1
1676782824.133301,50,1676782823.674016,34.04852761204612,-117.813943696168,218.4913,-1,-1,-1,-1,15.87118148803711,35,-9999,1676782824.128732,-24.07292938232422,-31.71018981933594,-25.145751953125,187.5285339355469,176.0453643798828,10,1739077.169046625,-0.3097686767578125,-0.3486480712890625,-0.8767547607421875,1739077.140419625,0.383110374212265,0.3394896388053894,-0.1283403933048248,1739077.147361625,-151.4319458007812,37.70176696777344,-319.587158203125,1739077.132951625,0.1140184985549246,-0.3075447859801532,0.3555323133544665,0.3824743628501892,0.3172610700130463,-0.3551087975502014,-0.03153505921363831,0.04643833637237549,-0.01307976245880127,2,0.1830506050095037,-0.1405517658960772,0.02837798315512385,0.97259058222006,-0.283787876367569,-0.3480894267559052,-0.893475353717804,-24.63602447509766,-31.28168106079102,-26.005615234375,-1,2,1739077.116770625,4,1,1676782824.079637,0,0,0,0,0,0,0,0,0,1739074.651228,0,0.01321411,99.0816,1676782822.481812,0,182416158,0,0,1,1676782822.477204,1,0.82,1
1676782824.168291,51,1676782823.674016,34.04852761204612,-117.813943696168,218.4913,-1,-1,-1,-1,15.87118148803711,35,-9999,1676782824.14832,-24.61310577392578,-31.80843734741211,-25.33859252929688,186.4447784423828,174.9616088867188,10,1739077.202651625,-0.32757568359375,-0.3856048583984375,-0.8233184814453125,1739077.174024625,0.5826953649520874,0.007908789440989494,0.9034994840621948,1739077.177381625,-151.8524475097656,37.50741577148438,-319.8938293457031,1739077.192693625,0.156796465353863,-0.3158538302457276,0.3749239607383038,0.7812510132789612,-0.1945037394762039,1.18480396270752,-0.02566203474998474,-0.01648873090744019,0.02961444854736328,2,0.1955827406748518,-0.1396271544275663,0.04676831383232488,0.9695692594387147,-0.2890505492687225,-0.3662017583847046,-0.8845033049583435,-24.87639617919922,-31.69366455078125,-25.33001708984375,-1,2,1739077.116770625,4,1,1676782824.079637,0,0,0,0,0,0,0,0,0,1739074.651228,0,0.01321411,99.0816,1676782822.481812,0,182416158,0,0,1,1676782822.477204,1,0.82,1
1676782824.205,52,1676782823.674016,34.04852761204612,-117.813943696168,218.4913,-1,-1,-1,-1,15.87118148803711,35,-9999,1676782824.18826,-26.09694671630859,-31.48609924316406,-24.04476928710938,183.7101287841797,172.2269592285156,10,1739077.236255625,-0.292755126953125,-0.3964691162109375,-0.8670806884765625,1739077.207629625,0.9324089288711548,-0.1995735615491867,1.115241527557373,1739077.237420625,-153.7572479248047,38.22013854980469,-317.3268127441406,1739077.192693625,0.156796465353863,-0.3158538302457276,0.3749239607383038,0.7812510132789612,-0.1945037394762039,1.18480396270752,-0.02566203474998474,-0.01648873090744019,0.02961444854736328,2,0.1955827406748518,-0.1396271544275663,0.04676831383232488,0.9695692594387147,-0.2890505492687225,-0.3662017583847046,-0.8845033049583435,-24.87639617919922,-31.69366455078125,-25.33001708984375,-1,2,1739077.116770625,4,1,1676782824.079637,0,0,0,0,0,0,0,0,0,1739074.651228,0,0.01321411,99.0816,1676782822.481812,0,182416158,0,0,1,1676782822.477204,1,0.82,1
1676782824.232828,53,1676782823.674016,34.04852761204612,-117.813943696168,218.4913,-1,-1,-1,-1,15.87118148803711,35,-9999,1676782824.227922,-26.50995635986328,-31.62451171875,-22.87503051757812,182.7378692626953,171.2546997070312,10,1739077.269862625,-0.231536865234375,-0.442596435546875,-0.9299468994140625,1739077.241234625,0.8520411252975464,-0.03360909223556519,0.3767502009868622,1739077.267439625,-153.6705932617188,37.52641296386719,-317.0833129882812,1739077.252436625,0.2231399906251436,-0.3476273241654912,0.4104823479137195,0.5932711958885193,0.0191043596714735,-0.01345632411539555,0.06192564964294434,0.01004400849342346,-0.04804456233978271,2,0.2183351606347554,-0.1459081446465658,0.07233292466382857,0.962189455331581,-0.3123681843280792,-0.3990516662597656,-0.8620811700820923,-26.68169403076172,-31.62350082397461,-23.13119506835938,-1,2,1739077.116770625,4,1,1676782824.079637,0,0,0,0,0,0,0,0,0,1739075.651801,0,0.01321411,99.0816,1676782822.481812,0,182416158,0,0,1,1676782822.477204,1,0.82,1
1676782824.267656,54,1676782823.674016,34.04852761204612,-117.813943696168,218.4913,-1,-1,-1,-1,15.87118148803711,35,-9999,1676782824.248017,-26.31623077392578,-31.98273849487305,-22.72003173828125,183.3723602294922,171.8891906738281,10,1739077.303467625,-0.3755645751953125,-0.464813232421875,-0.8702545166015625,1739077.274840625,-0.1037687361240387,0.1431302577257156,-0.6432804465293884,1739077.297459625,-153.2467041015625,37.34466552734375,-317.2644653320312,1739077.252436625,0.2231399906251436,-0.3476273241654912,0.4104823479137195,0.5932711958885193,0.0191043596714735,-0.01345632411539555,0.06192564964294434,0.01004400849342346,-0.04804456233978271,2,0.2183351606347554,-0.1459081446465658,0.07233292466382857,0.962189455331581,-0.3123681843280792,-0.3990516662597656,-0.8620811700820923,-26.68169403076172,-31.62350082397461,-23.13119506835938,-1,2,1739077.116770625,4,1,1676782824.079637,0,0,0,0,0,0,0,0,0,1739075.651801,0,0.01321411,99.0816,1676782822.481812,0,182416158,0,0,1,1676782822.477204,1,0.82,1
1676782824.302477,55,1676782823.674016,34.04852761204612,-117.813943696168,218.4913,-1,-1,-1,-1,15.87118148803711,35,-9999,1676782824.287693,-25.75678253173828,-32.14993667602539,-23.11553955078125,184.1878509521484,172.7046813964844,10,1739077.337072625,-0.272979736328125,-0.4118499755859375,-0.84735107421875,1739077.308445625,-0.4294344484806061,0.2258863896131516,-0.2326034158468246,1739077.327472625,-152.8026275634766,36.89852905273438,-317.8789672851562,1739077.312179625,0.1935396897473508,-0.3268834761224556,0.4110436187935929,-0.4102583527565002,0.2092002183198929,-0.1958777904510498,-0.0794166624546051,-0.07060292363166809,-0.002259612083435059,2,0.2158066972780625,-0.1390903692595076,0.06027377003339368,0.964597582880961,-0.2943474352359772,-0.3995662331581116,-0.8681626915931702,-25.91605377197266,-32.06493377685547,-22.960693359375,-1,2,1739077.116770625,4,1,1676782824.079637,0,0,0,0,0,0,0,0,0,1739075.651801,0,0.01321411,99.0816,1676782822.481812,0,182416158,0,0,1,1676782822.477204,1,0.82,1
1676782824.33748,56,1676782823.674016,34.04852761204612,-117.813943696168,218.4913,-1,-1,-1,-1,15.87118148803711,35,-9999,1676782824.327391,-25.31076812744141,-31.98471069335938,-23.72662353515625,184.4282379150391,172.945068359375,10,1739077.370677625,-0.207427978515625,-0.29498291015625,-0.812408447265625,1739077.342050625,0.01132935378700495,0.3080049753189087,-0.1353985667228699,1739077.357488625,-152.4191131591797,37.45437622070312,-318.1845397949219,1739077.312179625,0.1935396897473508,-0.3268834761224556,0.4110436187935929,-0.4102583527565002,0.2092002183198929,-0.1958777904510498,-0.0794166624546051,-0.07060292363166809,-0.002259612083435059,2,0.2158066972780625,-0.1390903692595076,0.06027377003339368,0.964597582880961,-0.2943474352359772,-0.3995662331581116,-0.8681626915931702,-25.91605377197266,-32.06493377685547,-22.960693359375,-1,2,1739077.116770625,4,1,1676782824.079637,0,0,0,0,0,0,0,0,0,1739075.651801,0,0.01321411,99.0816,1676782822.481812,0,182416158,0,0,1,1676782822.477204,1,0.82,1
1676782824.367325,57,1676782823.674016,34.04852761204612,-117.813943696168,218.4913,-1,-1,-1,-1,15.87118148803711,35,-9999,1676782824.347474,-24.94219207763672,-32.63527679443359,-23.57876586914062,184.7780609130859,173.2948913574219,10,1739077.404283625,-0.2232208251953125,-0.34356689453125,-0.9207305908203125,1739077.375655625,0.8819510340690613,0.3904039561748505,-0.5565846562385559,1739077.387506625,-151.8777008056641,36.23294067382812,-317.6584167480469,1739077.371922625,0.1810249716890419,-0.3038118849719138,0.4191902005155373,0.7885914444923401,0.4026022255420685,-0.5091758370399475,0.0682256817817688,0.09928154945373535,0.07019555568695068,2,0.2182045334481332,-0.1288147568239946,0.05603686728172858,0.9657399062517424,-0.2732580900192261,-0.4070208966732025,-0.8715870976448059,-25.07775115966797,-32.40097427368164,-23.4119873046875,-1,2,1739077.116770625,4,1,1676782824.079637,0,0,0,0,0,0,0,0,0,1739075.651801,0,0.01321411,99.0816,1676782822.481812,0,182416158,0,0,1,1676782822.477204,1,0.82,1
