loggingTime,loggingSample,locationTimestamp_since1970,locationLatitude,locationLongitude,locationAltitude,locationSpeed,locationSpeedAccuracy,locationCourse,locationCourseAccuracy,locationVerticalAccuracy,locationHorizontalAccuracy,locationFloor,locationHeadingTimestamp_since1970,locationHeadingX,locationHeadingY,locationHeadingZ,locationTrueHeading,locationMagneticHeading,locationHeadingAccuracy,accelerometerTimestamp_sinceReboot,accelerometerAccelerationX,accelerometerAccelerationY,accelerometerAccelerationZ,gyroTimestamp_sinceReboot,gyroRotationX,gyroRotationY,gyroRotationZ,magnetometerTimestamp_sinceReboot,magnetometerX,magnetometerY,magnetometerZ,motionTimestamp_sinceReboot,motionYaw,motionRoll,motionPitch,motionRotationRateX,motionRotationRateY,motionRotationRateZ,motionUserAccelerationX,motionUserAccelerationY,motionUserAccelerationZ,motionAttitudeReferenceFrame,motionQuaternionX,motionQuaternionY,motionQuaternionZ,motionQuaternionW,motionGravityX,motionGravityY,motionGravityZ,motionMagneticFieldX,motionMagneticFieldY,motionMagneticFieldZ,motionHeading,motionMagneticFieldCalibrationAccuracy,activityTimestamp_sinceReboot,activity,activityActivityConfidence,activityActivityStartDate,pedometerStartDate,pedometerNumberofSteps,pedometerAverageActivePace,pedometerCurrentPace,pedometerCurrentCadence,pedometerDistance,pedometerFloorAscended,pedometerFloorDescended,pedometerEndDate,altimeterTimestamp_sinceReboot,altimeterReset,altimeterRelativeAltitude,altimeterPressure,IP_Timestamp_since1970,IP_en0,IP_pdp_ip0,deviceID,deviceOrientationTimeStamp_since1970,deviceOrientation,batteryTimeStamp_since1970,batteryState,batteryLevel,label
1676820299.2634,1,1676820298.332498,34.04826098964914,-117.813619418277,217.2581,0.3854362,1.638801,16.57865572282629,117.9829085405914,6.704205889309022,15.03397589218162,-9999,1676820299.257123,22.60395050048828,-17.86932754516602,-36.74520874023438,264.7232971191406,253.2410583496094,12.46584510803223,1757480.170968292,-0.0616302490234375,-0.2438201904296875,-0.9942474365234375,1757480.142336292,-0.6401767730712891,-0.3090470731258392,0.1318664252758026,1757480.141132292,-120.1871032714844,62.41609191894531,-318.5606079101562,1757480.143581292,0.5792378556484787,-0.03020753965089214,0.2900468503968105,-0.6568244099617004,-0.3511802852153778,0.1241425648331642,-0.01797943934798241,0.02647557854652405,-0.1674355268478394,2,0.1427491164929858,0.02694481496723304,0.2804650860576658,0.9488078310205367,-0.02894138358533382,-0.2859971225261688,-0.9577933549880981,22.91538238525391,-18.18540573120117,-36.069091796875,-1,2,1757468.787300875,4,2,1676820287.871968,0,0,0,0,0,0,0,0,0,1757477.711265,0,0.06869507,99.08904,1676820299.263031,0,182416158,0,0,1,1676820299.235293,1,0.82,1
1676820299.291506,2,1676820298.332498,34.04826098964914,-117.813619418277,217.2581,0.3854362,1.638801,16.57865572282629,117.9829085405914,6.704205889309022,15.03397589218162,-9999,1676820299.277026,22.18346405029297,-17.66640472412109,-37.32119750976562,264.8507690429688,253.3685302734375,12.46590900421143,1757480.20457825,-0.097808837890625,-0.246246337890625,-0.8673553466796875,1757480.175947292,-0.5755367875099182,-0.5425836443901062,-0.01962723024189472,1757480.20118525,-121.4250793457031,63.52984619140625,-319.3605651855469,1757480.143581292,0.5792378556484787,-0.03020753965089214,0.2900468503968105,-0.6568244099617004,-0.3511802852153778,0.1241425648331642,-0.01797943934798241,0.02647557854652405,-0.1674355268478394,2,0.1427491164929858,0.02694481496723304,0.2804650860576658,0.9488078310205367,-0.02894138358533382,-0.2859971225261688,-0.9577933549880981,22.91538238525391,-18.18540573120117,-36.069091796875,-1,2,1757468.787300875,4,2,1676820287.871968,0,0,0,0,0,0,0,0,0,1757477.711265,0,0.06869507,99.08904,1676820299.263031,0,182416158,0,0,1,1676820299.235293,1,0.82,1
1676820299.328671,3,1676820298.332498,34.04826098964914,-117.813619418277,217.2581,0.3854362,1.638801,16.57865572282629,117.9829085405914,6.704205889309022,15.03397589218162,-9999,1676820299.316677,21.96003723144531,-17.09237670898438,-37.32791137695312,265.0560913085938,253.5738525390625,12.46602058410645,1757480.23818725,-0.06304931640625,-0.2424774169921875,-0.9118194580078125,1757480.20955725,-0.2412368506193161,0.06082047522068024,-0.09107691049575806,1757480.23121325,-121.2441558837891,64.11968994140625,-319.8829345703125,1757480.20333325,0.5772881515701667,-0.05646573491635287,0.2557689243244437,-0.3432380259037018,-0.07639900594949722,-0.1054169833660126,-0.03623579442501068,0.01025253534317017,0.0772857666015625,2,0.1301812311289212,0.009448721420086752,0.2787643364020952,0.9514484483529601,-0.0545998252928257,-0.2529893815517426,-0.9659271240234375,21.8065185546875,-17.15349197387695,-37.07540893554688,-1,2,1757468.787300875,4,2,1676820287.871968,0,0,0,0,0,0,0,0,0,1757477.711265,0,0.06869507,99.08904,1676820299.263031,0,182416158,0,0,1,1676820299.235293,1,0.82,1
1676820299.362428,4,1676820298.332498,34.04826098964914,-117.813619418277,217.2581,0.3854362,1.638801,16.57865572282629,117.9829085405914,6.704205889309022,15.03397589218162,-9999,1676820299.356513,22.08358001708984,-17.17445373535156,-37.005615234375,265.0838012695312,253.6015625,12.46610832214355,1757480.27179725,-0.0616912841796875,-0.2639312744140625,-0.9464111328125,1757480.24316725,0.3030712008476257,0.1183572709560394,-0.03649649024009705,1757480.26123525,-121.0034790039062,63.32444763183594,-319.3667297363281,1757480.26308425,0.5745379318985276,-0.05012190541900115,0.2626138219497464,0.3892291188240051,-0.02930307574570179,-0.008109686896204948,-0.0007654093205928802,0.01648727059364319,0.02192080020904541,2,0.1325638943310728,0.01326066420793596,0.2776604596028374,0.9513967554789694,-0.0483831986784935,-0.2596056461334229,-0.9645019173622131,22.08358001708984,-17.17445373535156,-37.005615234375,-1,2,1757468.787300875,4,2,1676820287.871968,0,0,0,0,0,0,0,0,0,1757477.711265,0,0.06869507,99.08904,1676820299.263031,0,182416158,0,0,1,1676820299.235293,1,0.82,1
1676820299.391168,5,1676820298.332498,34.04826098964914,-117.813619418277,217.2581,0.3854362,1.638801,16.57865572282629,117.9829085405914,6.704205889309022,15.03397589218162,-9999,1676820299.376407,21.96262359619141,-17.781982421875,-36.92025756835938,265.0302124023438,253.5479736328125,12.46614837646484,1757480.30540825,-0.0721282958984375,-0.2642974853515625,-0.91070556640625,1757480.27677625,0.3212784230709076,0.00153557863086462,0.03189987689256668,1757480.29126025,-121.1404876708984,63.17221069335938,-319.3501586914062,1757480.26308425,0.5745379318985276,-0.05012190541900115,0.2626138219497464,0.3892291188240051,-0.02930307574570179,-0.008109686896204948,-0.0007654093205928802,0.01648727059364319,0.02192080020904541,2,0.1325638943310728,0.01326066420793596,0.2776604596028374,0.9513967554789694,-0.0483831986784935,-0.2596056461334229,-0.9645019173622131,22.08358001708984,-17.17445373535156,-37.005615234375,-1,2,1757468.787300875,4,2,1676820287.871968,0,0,0,0,0,0,0,0,0,1757477.711265,0,0.06869507,99.08904,1676820299.263031,0,182416158,0,0,1,1676820299.235293,1,0.82,1
1676820299.425877,6,1676820298.332498,34.04826098964914,-117.813619418277,217.2581,0.3854362,1.638801,16.57865572282629,117.9829085405914,6.704205889309022,15.03397589218162,-9999,1676820299.416177,21.96746826171875,-17.57564926147461,-36.77618408203125,264.9934997558594,253.5112609863281,12.46621608734131,1757480.33901825,-0.0643768310546875,-0.26080322265625,-0.8961944580078125,1757480.31038725,0.04544178396463394,0.04086674004793167,0.02279559336602688,1757480.32128425,-121.1422119140625,62.85948181152344,-319.2105102539062,1757480.32283525,0.5765020884934232,-0.05071005010882285,0.2733111667537929,0.002381748054176569,0.07941580563783646,-0.003976098261773586,-0.03569633141160011,0.00711899995803833,0.05811071395874023,2,0.137707983387683,0.01463489892440284,0.2782237977884711,0.950480916403323,-0.04880689084529877,-0.2699211835861206,-0.9616446495056152,21.96746826171875,-17.57564926147461,-36.77618408203125,-1,2,1757468.787300875,4,2,1676820287.871968,0,0,0,0,0,0,0,0,0,1757477.711265,0,0.06869507,99.08904,1676820299.263031,0,182416158,0,0,1,1676820299.235293,1,0.82,1
1676820299.460695,7,1676820299.282503,34.0482725305034,-117.8136050727483,217.2811,0.7437319,1.479233,28.25683698244017,80.68184873832814,6.654349716769406,13.9793426910568,-9999,1676820299.43616,22.17292022705078,-17.77797698974609,-36.89569091796875,265.0198364257812,253.53759765625,12.46624660491943,1757480.37262825,-0.0742034912109375,-0.311676025390625,-0.925537109375,1757480.34399725,0.03783978894352913,0.07115620374679565,-0.04378795996308327,1757480.35130725,-120.9043884277344,62.85069274902344,-319.5308837890625,1757480.32283525,0.5765020884934232,-0.05071005010882285,0.2733111667537929,0.002381748054176569,0.07941580563783646,-0.003976098261773586,-0.03569633141160011,0.00711899995803833,0.05811071395874023,2,0.137707983387683,0.01463489892440284,0.2782237977884711,0.950480916403323,-0.04880689084529877,-0.2699211835861206,-0.9616446495056152,21.96746826171875,-17.57564926147461,-36.77618408203125,-1,2,1757468.787300875,4,2,1676820287.871968,0,0,0,0,0,0,0,0,0,1757477.711265,0,0.06869507,99.08904,1676820299.263031,0,182416158,0,0,1,1676820299.235293,1,0.82,1
1676820299.495523,8,1676820299.282503,34.0482725305034,-117.8136050727483,217.2811,0.7437319,1.479233,28.25683698244017,80.68184873832814,6.654349716769406,13.9793426910568,-9999,1676820299.47591,22.50115966796875,-17.79365921020508,-37.06057739257812,264.9212951660156,253.4390411376953,12.46623134613037,1757480.40623725,-0.0504302978515625,-0.286834716796875,-0.9642486572265625,1757480.37760725,0.05165920034050941,0.3055822849273682,0.0382579080760479,1757480.38133125,-120.5470275878906,62.73001098632812,-319.50146484375,1757480.38258625,0.576197672186973,-0.04190836881410444,0.2749765026666443,0.06010835617780685,0.2816981077194214,0.03640476241707802,-0.02629778534173965,-0.03749668598175049,0.027565598487854,2,0.1372751105543432,0.01903348651040262,0.278633581036999,0.9503455666136105,-0.04032213240861893,-0.2715243101119995,-0.9615865349769592,22.50115966796875,-17.79365921020508,-37.06057739257812,-1,2,1757468.787300875,4,2,1676820287.871968,0,0,0,0,0,0,0,0,0,1757477.711265,0,0.06869507,99.08904,1676820299.263031,0,182416158,0,0,1,1676820299.235293,1,0.82,1
1676820299.526655,9,1676820299.282503,34.0482725305034,-117.8136050727483,217.2811,0.7437319,1.479233,28.25683698244017,80.68184873832814,6.654349716769406,13.9793426910568,-9999,1676820299.516112,22.693115234375,-17.93897247314453,-36.89517211914062,264.7391052246094,253.2568511962891,12.4659538269043,1757480.43984825,-0.0544281005859375,-0.313690185546875,-0.99859619140625,1757480.41121725,0.1629175394773483,0.1896423697471619,0.0481126680970192,1757480.41135425,-120.3164825439453,62.59121704101562,-319.3967895507812,1757480.38258625,0.576197672186973,-0.04190836881410444,0.2749765026666443,0.06010835617780685,0.2816981077194214,0.03640476241707802,-0.02629778534173965,-0.03749668598175049,0.027565598487854,2,0.1372751105543432,0.01903348651040262,0.278633581036999,0.9503455666136105,-0.04032213240861893,-0.2715243101119995,-0.9615865349769592,22.50115966796875,-17.79365921020508,-37.06057739257812,-1,2,1757468.787300875,4,2,1676820287.871968,0,0,0,0,0,0,0,0,0,1757477.711265,0,0.06869507,99.08904,1676820299.263031,0,182416158,0,0,1,1676820299.235293,1,0.82,1
1676820299.563687,10,1676820299.282503,34.0482725305034,-117.8136050727483,217.2811,0.7437319,1.479233,28.25683698244017,80.68184873832814,6.654349716769406,13.9793426910568,-9999,1676820299.555717,23.07724761962891,-18.04732513427734,-36.19497680664062,264.4486083984375,252.9663696289062,12.46571731567383,1757480.47345825,-0.0185394287109375,-0.271820068359375,-1.039077758789062,1757480.44482725,0.04143026471138,0.1877611130475998,0.1487255543470383,1757480.47140425,-120.4085540771484,62.17405700683594,-319.0187377929688,1757480.44233725,0.5805884521679641,-0.03215467815722285,0.2820300237355544,0.05014416202902794,0.1823646724224091,0.1399119198322296,-0.02370172925293446,-0.03495696187019348,-0.03464818000793457,2,0.1392061369427531,0.02497336941323054,0.2811912941656175,0.9491731500446532,-0.03087900392711163,-0.2783060371875763,-0.9599959850311279,23.05875396728516,-18.00410842895508,-36.47802734375,-1,2,1757468.787300875,4,2,1676820287.871968,0,0,0,0,0,0,0,0,0,1757477.711265,0,0.06869507,99.08904,1676820299.263031,0,182416158,0,0,1,1676820299.235293,1,0.82,1
1676820299.595201,11,1676820299.282503,34.0482725305034,-117.8136050727483,217.2811,0.7437319,1.479233,28.25683698244017,80.68184873832814,6.654349716769406,13.9793426910568,-9999,1676820299.575617,22.74586486816406,-18.00976943969727,-36.4510498046875,264.4188842773438,252.9366455078125,12.46569919586182,1757480.50706825,-0.053192138671875,-0.2906036376953125,-0.934295654296875,1757480.47843725,-0.007412109989672899,-0.1134724989533424,0.03959188237786293,1757480.50142925,-120.2796020507812,62.42536926269531,-318.650634765625,1757480.50208825,0.5845265121561425,-0.03512830857185767,0.28200894986389,0.02705699391663074,-0.05952505767345428,0.01932903751730919,-0.01189007982611656,-0.01283666491508484,0.006200969219207764,2,0.1395674215044198,0.02383394960390279,0.2828530964612614,0.9486554456672639,-0.03373374417424202,-0.278285801410675,-0.959905743598938,22.79973602294922,-18.02609252929688,-36.34646606445312,-1,2,1757468.787300875,4,2,1676820287.871968,0,0,0,0,0,0,0,0,0,1757477.711265,0,0.06869507,99.08904,1676820299.263031,0,182416158,0,0,1,1676820299.235293,1,0.82,1
1676820299.630052,12,1676820299.282503,34.0482725305034,-117.8136050727483,217.2811,0.7437319,1.479233,28.25683698244017,80.68184873832814,6.654349716769406,13.9793426910568,-9999,1676820299.615454,22.50559234619141,-18.05545043945312,-36.08108520507812,264.3848571777344,252.9026184082031,12.46553611755371,1757480.54067725,-0.066497802734375,-0.289520263671875,-0.9263763427734375,1757480.51204725,0.05550560355186462,0.001991511788219213,0.02440787106752396,1757480.53145525,-120.6002502441406,62.50579833984375,-318.978515625,1757480.50208825,0.5845265121561425,-0.03512830857185767,0.28200894986389,0.02705699391663074,-0.05952505767345428,0.01932903751730919,-0.01189007982611656,-0.01283666491508484,0.006200969219207764,2,0.1395674215044198,0.02383394960390279,0.2828530964612614,0.9486554456672639,-0.03373374417424202,-0.278285801410675,-0.959905743598938,22.79973602294922,-18.02609252929688,-36.34646606445312,-1,2,1757468.787300875,4,2,1676820287.871968,0,0,0,0,0,0,0,0,0,1757477.711265,0,0.06869507,99.08904,1676820299.263031,0,182416158,0,0,1,1676820299.235293,1,0.82,1
1676820299.659969,13,1676820299.282503,34.0482725305034,-117.8136050727483,217.2811,0.7437319,1.479233,28.25683698244017,80.68184873832814,6.654349716769406,13.9793426910568,-9999,1676820299.655346,22.73190307617188,-18.39402389526367,-36.05194091796875,264.2466430664062,252.764404296875,12.46537971496582,1757480.57428825,-0.0469207763671875,-0.2823638916015625,-0.9425506591796875,1757480.54565725,0.09059621393680573,0.1200707480311394,0.05589282512664795,1757480.56148025,-120.381591796875,62.01878356933594,-318.3345031738281,1757480.56183925,0.5868914124474076,-0.03225403414724046,0.2861259486377326,0.1144132167100906,0.1152279004454613,0.04792129248380661,-0.02991473488509655,-0.002018272876739502,0.02352756261825562,2,0.1410799295029132,0.02595565171505578,0.2840591361326068,0.9480155097609645,-0.03093736432492733,-0.2822377979755402,-0.9588454961776733,22.73190307617188,-18.39402389526367,-36.05194091796875,-1,2,1757468.787300875,4,2,1676820287.871968,0,0,0,0,0,0,0,0,0,1757477.711265,0,0.06869507,99.08904,1676820299.263031,0,182416158,0,0,1,1676820299.235293,1,0.82,1
1676820299.694802,14,1676820299.282503,34.0482725305034,-117.8136050727483,217.2811,0.7437319,1.479233,28.25683698244017,80.68184873832814,6.654349716769406,13.9793426910568,-9999,1676820299.675188,22.59756469726562,-18.09848785400391,-36.11529541015625,264.2045593261719,252.7223052978516,12.46531867980957,1757480.60789825,-0.042510986328125,-0.2978057861328125,-0.9364166259765625,1757480.57926725,0.1306861042976379,0.09653133153915405,0.03033793158829212,1757480.59150425,-120.4813232421875,62.03083801269531,-318.6278076171875,1757480.56183925,0.5868914124474076,-0.03225403414724046,0.2861259486377326,0.1144132167100906,0.1152279004454613,0.04792129248380661,-0.02991473488509655,-0.002018272876739502,0.02352756261825562,2,0.1410799295029132,0.02595565171505578,0.2840591361326068,0.9480155097609645,-0.03093736432492733,-0.2822377979755402,-0.9588454961776733,22.73190307617188,-18.39402389526367,-36.05194091796875,-1,2,1757468.787300875,4,2,1676820287.871968,0,0,0,0,0,0,0,0,0,1757477.711265,0,0.06869507,99.08904,1676820299.263031,0,182416158,0,0,1,1676820299.235293,1,0.82,1
1676820299.729605,15,1676820299.282503,34.0482725305034,-117.8136050727483,217.2811,0.7437319,1.479233,28.25683698244017,80.68184873832814,6.654349716769406,13.9793426910568,-9999,1676820299.714906,22.83846282958984,-18.68263244628906,-36.08990478515625,264.1286010742188,252.6463623046875,12.4649019241333,1757480.64150825,-0.019927978515625,-0.3003082275390625,-1.008087158203125,1757480.61287725,0.03085591644048691,0.1748021692037582,0.006295179948210716,1757480.62152525,-120.1768188476562,61.69331359863281,-318.6173706054688,1757480.62159125,0.5882278113747864,-0.02589602848784023,0.2910461604897903,0.005945987533777952,0.172650545835495,0.007022356148809195,-0.01422784850001335,-0.01373523473739624,0.009243547916412354,2,0.1424852900466949,0.02977300347785838,0.2850068450641685,0.9474084154812703,-0.02480417862534523,-0.2869545519351959,-0.9576230049133301,22.83846282958984,-18.68263244628906,-36.08990478515625,-1,2,1757468.787300875,4,2,1676820287.871968,0,0,0,0,0,0,0,0,0,1757477.711265,0,0.06869507,99.08904,1676820299.263031,0,182416158,0,0,1,1676820299.235293,1,0.82,1
1676820299.770016,16,1676820299.282503,34.0482725305034,-117.8136050727483,217.2811,0.7437319,1.479233,28.25683698244017,80.68184873832814,6.654349716769406,13.9793426910568,-9999,1676820299.755044,23.16178131103516,-18.45310211181641,-36.34600830078125,264.116943359375,252.6347045898438,12.4640007019043,1757480.67511825,-0.027435302734375,-0.293487548828125,-0.9810638427734375,1757480.64648725,-0.0107876667752862,0.06369535624980927,-0.001872202265076339,1757480.65154525,-120.1132507324219,61.99351501464844,-318.8664245605469,1757480.62159125,0.5882278113747864,-0.02589602848784023,0.2910461604897903,0.005945987533777952,0.172650545835495,0.007022356148809195,-0.01422784850001335,-0.01373523473739624,0.009243547916412354,2,0.1424852900466949,0.02977300347785838,0.2850068450641685,0.9474084154812703,-0.02480417862534523,-0.2869545519351959,-0.9576230049133301,22.83846282958984,-18.68263244628906,-36.08990478515625,-1,2,1757468.787300875,4,2,1676820287.871968,0,0,0,0,0,0,0,0,0,1757477.711265,0,0.06869507,99.08904,1676820299.263031,0,182416158,0,0,1,1676820299.235293,1,0.82,1
1676820299.795765,17,1676820299.282503,34.0482725305034,-117.8136050727483,217.2811,0.7437319,1.479233,28.25683698244017,80.68184873832814,6.654349716769406,13.9793426910568,-9999,1676820299.774705,22.97986602783203,-18.23596572875977,-35.98114013671875,264.1784362792969,252.6961975097656,12.46370506286621,1757480.70872825,-0.060455322265625,-0.3139495849609375,-0.813995361328125,1757480.68009725,0.05805611237883568,-0.04661037772893906,-0.04381965100765228,1757480.68156825,-120.1540832519531,62.34632873535156,-318.412841796875,1757480.68134225,0.5876139566211761,-0.02450907066996679,0.2913863750805405,0.05417625978589058,-0.0547294095158577,-0.04706422984600067,-0.006509987637400627,-0.006024092435836792,-0.01657748222351074,2,0.1424579289686038,0.03043535002450345,0.2848056565019461,0.9474520567910659,-0.02347357757389545,-0.2872804403305054,-0.9575588703155518,22.97986602783203,-18.23596572875977,-35.98114013671875,-1,2,1757468.787300875,4,2,1676820287.871968,0,0,0,0,0,0,0,0,0,1757477.711265,0,0.06869507,99.08904,1676820299.263031,0,182416158,0,0,1,1676820299.235293,1,0.82,1
1676820299.829295,18,1676820299.282503,34.0482725305034,-117.8136050727483,217.2811,0.7437319,1.479233,28.25683698244017,80.68184873832814,6.654349716769406,13.9793426910568,-9999,1676820299.814779,23.3648681640625,-18.43732070922852,-35.528076171875,264.1170654296875,252.6348266601562,12.46359252929688,1757480.74233825,-0.019683837890625,-0.3201751708984375,-0.959381103515625,1757480.71370725,0.4907433390617371,0.4237781763076782,0.02990623377263546,1757480.74161425,-119.3501434326172,61.69821166992188,-317.7721252441406,1757480.68134225,0.5876139566211761,-0.02450907066996679,0.2913863750805405,0.05417625978589058,-0.0547294095158577,-0.04706422984600067,-0.006509987637400627,-0.006024092435836792,-0.01657748222351074,2,0.1424579289686038,0.03043535002450345,0.2848056565019461,0.9474520567910659,-0.02347357757389545,-0.2872804403305054,-0.9575588703155518,22.97986602783203,-18.23596572875977,-35.98114013671875,-1,2,1757468.787300875,4,2,1676820287.871968,0,0,0,0,0,0,0,0,0,1757477.711265,0,0.06869507,99.08904,1676820299.263031,0,182416158,0,0,1,1676820299.235293,1,0.82,1
1676820299.864019,19,1676820299.282503,34.0482725305034,-117.8136050727483,217.2811,0.7437319,1.479233,28.25683698244017,80.68184873832814,6.654349716769406,13.9793426910568,-9999,1676820299.854569,23.95713806152344,-19.57396697998047,-34.94586181640625,263.9314575195312,252.4492034912109,12.46364784240723,1757480.77594825,0.0042572021484375,-0.3316497802734375,-1.088912963867188,1757480.74731725,0.5132837891578674,0.4370324611663818,0.0247010849416256,1757480.77163825,-119.0047760009766,60.81765747070312,-317.8386840820312,1757480.74109325,0.5879794276892117,-0.007921413999531926,0.3144264103067452,0.6101460456848145,0.4754088819026947,0.04604358598589897,-0.009709496051073074,-0.01194179058074951,0.03016775846481323,2,0.1509813289987847,0.04162433641211236,0.2856036335382057,0.9454643555463764,-0.007532979361712933,-0.3092710673809052,-0.9509441256523132,23.64340209960938,-18.76962661743164,-35.33004760742188,-1,2,1757468.787300875,4,2,1676820287.871968,0,0,0,0,0,0,0,0,0,1757477.711265,0,0.06869507,99.08904,1676820299.263031,0,182416158,0,0,1,1676820299.235293,1,0.82,1
1676820299.920585,20,1676820299.282503,34.0482725305034,-117.8136050727483,217.2811,0.7437319,1.479233,28.25683698244017,80.68184873832814,6.654349716769406,13.9793426910568,-9999,1676820299.914111,23.64672088623047,-18.72120666503906,-35.64779663085938,264.1915588378906,252.7093200683594,12.46376037597656,1757480.80955825,0.0246124267578125,-0.3444976806640625,-0.9669036865234375,1757480.78092725,-0.2584198415279388,-0.06069450452923775,-0.03115419112145901,1757480.80165925,-119.1114959716797,61.52027893066406,-317.9183044433594,1757480.80084425,0.5862150355830663,-0.001744347102828118,0.3144732722521835,-0.4005900323390961,-0.2298536449670792,-0.04738757014274597,0.03354962915182114,-0.04848781228065491,-0.0820009708404541,2,0.1501599155242592,0.04441849581408032,0.2852334405307144,0.9455797030700186,-0.001658802502788603,-0.3093156218528748,-0.9509580135345459,23.99538421630859,-19.09020233154297,-35.31512451171875,-1,2,1757468.787300875,4,2,1676820287.871968,0,0,0,0,0,0,0,0,0,1757477.711265,0,0.06869507,99.08904,1676820299.263031,0,182416158,0,0,1,1676820299.235293,1,0.82,1
1676820299.928672,21,1676820299.282503,34.0482725305034,-117.8136050727483,217.2811,0.7437319,1.479233,28.25683698244017,80.68184873832814,6.654349716769406,13.9793426910568,-9999,1676820299.914111,23.64672088623047,-18.72120666503906,-35.64779663085938,264.1915588378906,252.7093200683594,12.46376037597656,1757480.84316825,-0.027923583984375,-0.3004913330078125,-0.8557281494140625,1757480.81453725,-0.279815673828125,-0.2234520018100739,-0.05014039948582649,1757480.83168325,-119.2706298828125,61.70010375976562,-317.6355590820312,1757480.80084425,0.5862150355830663,-0.001744347102828118,0.3144732722521835,-0.4005900323390961,-0.2298536449670792,-0.04738757014274597,0.03354962915182114,-0.04848781228065491,-0.0820009708404541,2,0.1501599155242592,0.04441849581408032,0.2852334405307144,0.9455797030700186,-0.001658802502788603,-0.3093156218528748,-0.9509580135345459,23.99538421630859,-19.09020233154297,-35.31512451171875,-1,2,1757468.787300875,4,2,1676820287.871968,0,0,0,0,0,0,0,0,0,1757478.26231,0,0.06341553,99.08913,1676820299.263031,0,182416158,0,0,1,1676820299.235293,1,0.82,1
1676820299.969826,22,1676820299.282503,34.0482725305034,-117.8136050727483,217.2811,0.7437319,1.479233,28.25683698244017,80.68184873832814,6.654349716769406,13.9793426910568,-9999,1676820299.954081,23.84075164794922,-18.84370040893555,-35.52752685546875,264.2962341308594,252.8139953613281,12.46382522583008,1757480.87677825,-0.0050048828125,-0.3080291748046875,-0.9438018798828125,1757480.84814825,0.09949569404125214,0.083917535841465,-0.03400510549545288,1757480.86170825,-119.2684326171875,61.60708618164062,-317.96435546875,1757480.86059625,0.5826516546939507,-0.005840158116242269,0.3083226218938329,0.1664587110280991,0.08493564277887344,-0.02574639767408371,-0.01826954260468483,0.00184023380279541,0.06531548500061035,2,0.147909486325743,0.04133935373558396,0.2833854615212134,0.9466290764651994,-0.005564727820456028,-0.3034607768058777,-0.9528276920318604,23.84075164794922,-18.84370040893555,-35.52752685546875,-1,2,1757468.787300875,4,2,1676820287.871968,0,0,0,0,0,0,0,0,0,1757478.26231,0,0.06341553,99.08913,1676820299.263031,0,182416158,0,0,1,1676820299.235293,1,0.82,1
1676820299.998347,23,1676820299.282503,34.0482725305034,-117.8136050727483,217.2811,0.7437319,1.479233,28.25683698244017,80.68184873832814,6.654349716769406,13.9793426910568,-9999,1676820299.993754,23.85035705566406,-19.01985931396484,-35.37155151367188,264.342529296875,252.8602752685547,12.46389484405518,1757480.91038825,-0.0022735595703125,-0.3347625732421875,-0.9710693359375,1757480.88175825,0.1717848032712936,0.02910115942358971,-0.01334856264293194,1757480.89173225,-119.00390625,61.50466918945312,-318.1904296875,1757480.86059625,0.5826516546939507,-0.005840158116242269,0.3083226218938329,0.1664587110280991,0.08493564277887344,-0.02574639767408371,-0.01826954260468483,0.00184023380279541,0.06531548500061035,2,0.147909486325743,0.04133935373558396,0.2833854615212134,0.9466290764651994,-0.005564727820456028,-0.3034607768058777,-0.9528276920318604,23.84075164794922,-18.84370040893555,-35.52752685546875,-1,2,1757468.787300875,4,2,1676820287.871968,0,0,0,0,0,0,0,0,0,1757478.26231,0,0.06341553,99.08913,1676820299.263031,0,182416158,0,0,1,1676820299.235293,1,0.82,1
1676820300.034836,24,1676820299.282503,34.0482725305034,-117.8136050727483,217.2811,0.7437319,1.479233,28.25683698244017,80.68184873832814,6.654349716769406,13.9793426910568,-9999,1676820300.013941,23.88232421875,-19.21559906005859,-35.46966552734375,264.3363342285156,252.8540802001953,12.46395206451416,1757480.94399825,-0.0172119140625,-0.3419952392578125,-0.916656494140625,1757480.91536725,-0.07045019418001175,-0.1497530043125153,0.03623976185917854,1757480.92175825,-119.1346740722656,61.27900695800781,-317.96435546875,1757480.92034725,0.5822404723930797,-0.008547846725982279,0.31355380807933,-0.1200655698776245,-0.1603101491928101,0.04226424172520638,0.002851400524377823,-0.02851879596710205,-0.01041543483734131,2,0.1507760374743754,0.04077057533586986,0.2828634894252072,0.9463576044609558,-0.008130984380841255,-0.3084411025047302,-0.9512087106704712,23.88232421875,-19.21559906005859,-35.46966552734375,-1,2,1757468.787300875,4,2,1676820287.871968,0,0,0,0,0,0,0,0,0,1757478.26231,0,0.06341553,99.08913,1676820299.263031,0,182416158,0,0,1,1676820299.235293,1,0.82,1
1676820300.063465,25,1676820299.282503,34.0482725305034,-117.8136050727483,217.2811,0.7437319,1.479233,28.25683698244017,80.68184873832814,6.654349716769406,13.9793426910568,-9999,1676820300.053501,23.43897247314453,-18.80461883544922,-36.04269409179688,264.1582946777344,252.6760559082031,12.46376991271973,1757480.97760925,0.01971435546875,-0.3079376220703125,-0.9197998046875,1757480.94897725,-0.2863787710666656,-0.06340213865041733,0.1186598017811775,1757480.95178125,-119.5623321533203,61.43287658691406,-318.5565185546875,1757480.92034725,0.5822404723930797,-0.008547846725982279,0.31355380807933,-0.1200655698776245,-0.1603101491928101,0.04226424172520638,0.002851400524377823,-0.02851879596710205,-0.01041543483734131,2,0.1507760374743754,0.04077057533586986,0.2828634894252072,0.9463576044609558,-0.008130984380841255,-0.3084411025047302,-0.9512087106704712,23.88232421875,-19.21559906005859,-35.46966552734375,-1,2,1757468.787300875,4,2,1676820287.871968,0,0,0,0,0,0,0,0,0,1757478.26231,0,0.06341553,99.08913,1676820299.263031,0,182416158,0,0,1,1676820299.235293,1,0.82,1
1676820300.097915,26,1676820299.282503,34.0482725305034,-117.8136050727483,217.2811,0.7437319,1.479233,28.25683698244017,80.68184873832814,6.654349716769406,13.9793426910568,-9999,1676820300.093341,23.14918518066406,-18.52455902099609,-35.96746826171875,264.0002136230469,252.5179595947266,12.46319484710693,1757481.01121925,0.018096923828125,-0.3077239990234375,-0.90875244140625,1757480.98258825,-0.3338647782802582,-0.04854116961359978,0.09538484364748001,1757481.01183225,-119.5890655517578,61.84579467773438,-318.5985107421875,1757480.98009825,0.5880374811004153,-0.01502186515147537,0.2969498480272494,-0.3419036567211151,-0.05281870812177658,0.1027920097112656,0.03175884485244751,-0.01762157678604126,0.03739386796951294,2,0.1437305848409835,0.035759562007041,0.2855408934080791,0.9468523375269841,-0.01436386909335852,-0.292604923248291,-0.9561255574226379,23.13323974609375,-18.55961227416992,-35.740234375,-1,2,1757468.787300875,4,2,1676820287.871968,0,0,0,0,0,0,0,0,0,1757478.26231,0,0.06341553,99.08913,1676820299.263031,0,182416158,0,0,1,1676820299.235293,1,0.82,1
1676820300.134517,27,1676820299.282503,34.0482725305034,-117.8136050727483,217.2811,0.7437319,1.479233,28.25683698244017,80.68184873832814,6.654349716769406,13.9793426910568,-9999,1676820300.133149,23.22256469726562,-18.13520812988281,-36.02694702148438,264.0832214355469,252.6009826660156,12.46216487884521,1757481.04482925,0.076263427734375,-0.3043365478515625,-0.9526519775390625,1757481.01619825,-0.1332717686891556,-0.08708377182483673,0.03917110338807106,1757481.04185625,-119.9586944580078,62.43730163574219,-318.6031494140625,1757481.03984925,0.5892515708644581,-0.02166277094913293,0.2863574939534928,-0.08740071207284927,-0.2933687269687653,-0.0756383091211319,0.08013566583395004,-0.02192246913909912,0.0008936524391174316,2,0.1396466258777656,0.0311737317917665,0.2859146262076511,0.9475125994637851,-0.02077901922166348,-0.2824599146842957,-0.9590540528297424,23.22256469726562,-18.13520812988281,-36.02694702148438,-1,2,1757468.787300875,4,2,1676820287.871968,0,0,0,0,0,0,0,0,0,1757478.26231,0,0.06341553,99.08913,1676820299.263031,0,182416158,0,0,1,1676820299.235293,1,0.82,1
1676820300.169395,28,1676820299.282503,34.0482725305034,-117.8136050727483,217.2811,0.7437319,1.479233,28.25683698244017,80.68184873832814,6.654349716769406,13.9793426910568,-9999,1676820300.153198,23.18184661865234,-18.4268798828125,-36.49005126953125,264.3658447265625,252.8836059570312,12.46217823028564,1757481.07843825,0.089599609375,-0.3179931640625,-0.948944091796875,1757481.04980825,-0.08790934830904007,-0.4009958803653717,-0.1433987021446228,1757481.07188025,-120.3548736572266,62.49618530273438,-318.8929443359375,1757481.03984925,0.5892515708644581,-0.02166277094913293,0.2863574939534928,-0.08740071207284927,-0.2933687269687653,-0.0756383091211319,0.08013566583395004,-0.02192246913909912,0.0008936524391174316,2,0.1396466258777656,0.0311737317917665,0.2859146262076511,0.9475125994637851,-0.02077901922166348,-0.2824599146842957,-0.9590540528297424,23.22256469726562,-18.13520812988281,-36.02694702148438,-1,2,1757468.787300875,4,2,1676820287.871968,0,0,0,0,0,0,0,0,0,1757478.26231,0,0.06341553,99.08913,1676820299.263031,0,182416158,0,0,1,1676820299.235293,1,0.82,1
1676820300.197615,29,1676820299.282503,34.0482725305034,-117.8136050727483,217.2811,0.7437319,1.479233,28.25683698244017,80.68184873832814,6.654349716769406,13.9793426910568,-9999,1676820300.192946,22.03629302978516,-17.36438751220703,-36.90377807617188,265.5242614746094,254.0420074462891,12.46221351623535,1757481.11204925,0.1103973388671875,-0.3293304443359375,-0.9645538330078125,1757481.08341825,-0.3470325171947479,-0.8324447870254517,-0.364290326833725,1757481.10190425,-121.2255401611328,63.30307006835938,-319.3439636230469,1757481.09960125,0.5713211635315888,-0.0566447724368428,0.2722082594415265,-0.5618958473205566,-1.061992526054382,-0.4794112145900726,0.1523997485637665,-0.05201807618141174,0.01598656177520752,2,0.1380397221550146,0.01129958839841417,0.2753866927170308,0.9513041758506559,-0.05452991276979446,-0.2688590288162231,-0.9616346955299377,22.46824645996094,-17.77882766723633,-36.94140625,-1,2,1757468.787300875,4,2,1676820287.871968,0,0,0,0,0,0,0,0,0,1757478.26231,0,0.06341553,99.08913,1676820299.263031,0,182416158,0,0,1,1676820299.235293,1,0.82,1
1676820300.234623,30,1676820299.282503,34.0482725305034,-117.8136050727483,217.2811,0.7437319,1.479233,28.25683698244017,80.68184873832814,6.654349716769406,13.9793426910568,-9999,1676820300.233133,20.02143096923828,-15.94485473632812,-38.3475341796875,267.2127075195312,255.73046875,12.46227550506592,1757481.14565925,-0.0105438232421875,-0.3350677490234375,-1.0006103515625,1757481.11702825,-0.7414695620536804,-1.252196788787842,-0.5778361558914185,1757481.13193025,-122.6232147216797,64.32029724121094,-320.3960571289062,1757481.09960125,0.5713211635315888,-0.0566447724368428,0.2722082594415265,-0.5618958473205566,-1.061992526054382,-0.4794112145900726,0.1523997485637665,-0.05201807618141174,0.01598656177520752,2,0.1380397221550146,0.01129958839841417,0.2753866927170308,0.9513041758506559,-0.05452991276979446,-0.2688590288162231,-0.9616346955299377,22.46824645996094,-17.77882766723633,-36.94140625,-1,2,1757468.787300875,4,2,1676820287.871968,0,0,0,0,0,0,0,0,0,1757478.26231,0,0.06341553,99.08913,1676820299.263031,0,182416158,0,0,1,1676820299.235293,1,0.82,1
1676820300.267675,31,1676820299.282503,34.0482725305034,-117.8136050727483,217.2811,0.7437319,1.479233,28.25683698244017,80.68184873832814,6.654349716769406,13.9793426910568,-9999,1676820300.252692,19.32811737060547,-15.23457336425781,-39.078857421875,267.7039184570312,256.2216796875,12.46231174468994,1757481.17926925,-0.0758514404296875,-0.3403778076171875,-0.932220458984375,1757481.15063825,-0.92417973279953,-1.282808780670166,-0.317360907793045,1757481.16195525,-123.9606170654297,65.3609619140625,-321.5851135253906,1757481.15935225,0.5376296142711208,-0.124174138242553,0.2266521634386416,-0.9421700835227966,-1.262551426887512,-0.138885036110878,0.06514552235603333,-0.1066891252994537,0.008272707462310791,2,0.1251856909275217,-0.02945923073046681,0.25661236635254,0.9579201110083349,-0.1206875741481781,-0.2247165739536285,-0.9669213891029358,19.82771301269531,-15.46823883056641,-38.95050048828125,-1,2,1757468.787300875,4,2,1676820287.871968,0,0,0,0,0,0,0,0,0,1757478.26231,0,0.06341553,99.08913,1676820299.263031,0,182416158,0,0,1,1676820299.235293,1,0.82,1
1676820300.302202,32,1676820299.282503,34.0482725305034,-117.8136050727483,217.2811,0.7437319,1.479233,28.25683698244017,80.68184873832814,6.654349716769406,13.9793426910568,-9999,1676820300.29239,17.44834899902344,-13.94711303710938,-40.297119140625,267.4947509765625,256.0125122070312,12.46236896514893,1757481.212879875,-0.0192718505859375,-0.2230682373046875,-1.0140380859375,1757481.18424825,-0.8201255202293396,-1.02613091468811,0.2721894383430481,1757481.19197825,-125.6537017822266,66.57431030273438,-322.9163208007812,1757481.15935225,0.5376296142711208,-0.124174138242553,0.2266521634386416,-0.9421700835227966,-1.262551426887512,-0.138885036110878,0.06514552235603333,-0.1066891252994537,0.008272707462310791,2,0.1251856909275217,-0.02945923073046681,0.25661236635254,0.9579201110083349,-0.1206875741481781,-0.2247165739536285,-0.9669213891029358,19.82771301269531,-15.46823883056641,-38.95050048828125,-1,2,1757468.787300875,4,2,1676820287.871968,0,0,0,0,0,0,0,0,0,1757478.26231,0,0.06341553,99.08913,1676820299.263031,0,182416158,0,0,1,1676820299.235293,1,0.82,1
1676820300.332061,33,1676820299.282503,34.0482725305034,-117.8136050727483,217.2811,0.7437319,1.479233,28.25683698244017,80.68184873832814,6.654349716769406,13.9793426910568,-9999,1676820300.312478,16.49770355224609,-13.731201171875,-40.987548828125,267.0331726074219,255.5509338378906,12.46239471435547,1757481.246489875,-0.05462646484375,-0.11578369140625,-0.8916778564453125,1757481.217858875,-0.3659761250019073,-0.8451749086380005,0.5465427041053772,1757481.222001875,-126.7675018310547,66.88414001464844,-323.5147705078125,1757481.219103875,0.5484559497964323,-0.186890294599472,0.1809119185422909,-0.35691237449646,-0.8477873206138611,0.5559756755828857,0.1567250937223434,-0.04010510444641113,-0.05200368165969849,2,0.1117431352727532,-0.06509974119815819,0.2604061315089228,0.9567989442076739,-0.1827719211578369,-0.1799266785383224,-0.9665510058403015,16.93813323974609,-14.0146484375,-40.80642700195312,-1,2,1757468.787300875,4,2,1676820287.871968,0,0,0,0,0,0,0,0,0,1757478.26231,0,0.06341553,99.08913,1676820299.263031,0,182416158,0,0,1,1676820299.235293,1,0.82,1
1676820300.370224,34,1676820299.282503,34.0482725305034,-117.8136050727483,217.2811,0.7437319,1.479233,28.25683698244017,80.68184873832814,6.654349716769406,13.9793426910568,-9999,1676820300.352415,15.74118041992188,-14.54996490478516,-41.39804077148438,265.1596984863281,253.6774597167969,12.46242427825928,1757481.280099875,0.034912109375,0.004150390625,-0.91351318359375,1757481.251469875,0.2770483791828156,0.01040230691432953,0.9078372716903687,1757481.252027875,-127.7348937988281,65.96762084960938,-323.4264526367188,1757481.219103875,0.5484559497964323,-0.186890294599472,0.1809119185422909,-0.35691237449646,-0.8477873206138611,0.5559756755828857,0.1567250937223434,-0.04010510444641113,-0.05200368165969849,2,0.1117431352727532,-0.06509974119815819,0.2604061315089228,0.9567989442076739,-0.1827719211578369,-0.1799266785383224,-0.9665510058403015,16.93813323974609,-14.0146484375,-40.80642700195312,-1,2,1757468.787300875,4,2,1676820287.871968,0,0,0,0,0,0,0,0,0,1757478.26231,0,0.06341553,99.08913,1676820299.263031,0,182416158,0,0,1,1676820299.235293,1,0.82,1
1676820300.405588,35,1676820300.232712,34.04828651433091,-117.813592254774,217.3133,1.199729,1.35814,28.992336509812,46.28158077843599,6.595669402256187,13.02062158569125,-9999,1676820300.39688,15.90174102783203,-16.97004318237305,-40.03579711914062,262.4461059570312,250.9638519287109,12.46229267120361,1757481.313709875,-0.08404541015625,-0.2972259521484375,-0.911956787109375,1757481.285079875,1.326447010040283,0.4955341219902039,0.9630560278892517,1757481.312079875,-127.3830718994141,62.30140686035156,-322.1171264648438,1757481.278854875,0.6005340875487537,-0.2019712418262186,0.1865373757549759,1.136959075927734,0.5497830510139465,0.8789690136909485,0.2455217391252518,0.2149373888969421,0.06491190195083618,2,0.1182019446034872,-0.06847857060009037,0.2840203399618837,0.9490371434610093,-0.1971209198236465,-0.1854574531316757,-0.9626779556274414,15.5341796875,-14.90483856201172,-41.3074951171875,-1,2,1757468.787300875,4,2,1676820287.871968,0,0,0,0,0,0,0,0,0,1757478.26231,0,0.06341553,99.08913,1676820299.263031,0,182416158,0,0,1,1676820299.235293,1,0.82,1
1676820300.436546,36,1676820300.232712,34.04828651433091,-117.813592254774,217.3133,1.199729,1.35814,28.992336509812,46.28158077843599,6.595669402256187,13.02062158569125,-9999,1676820300.431815,15.54212188720703,-20.14261245727539,-39.65182495117188,258.6393127441406,247.1570739746094,12.46199417114258,1757481.347319875,-0.1280517578125,-0.4935302734375,-0.8412933349609375,1757481.318689875,1.689374089241028,-0.08744249492883682,1.585813641548157,1757481.342106875,-127.5620269775391,60.13291931152344,-322.1130981445312,1757481.338606875,0.7017555241188984,-0.2202669759740837,0.2592300497831208,1.164716482162476,-0.4830783307552338,1.504461646080017,0.1373067498207092,-0.2205618619918823,0.09196150302886963,2,0.1581037917353281,-0.05819070934117375,0.3254332790730098,0.9304355925512268,-0.2111898809671402,-0.2563363909721375,-0.9432340860366821,15.57774353027344,-19.57191467285156,-39.63650512695312,-1,2,1757468.787300875,4,2,1676820287.871968,0,0,0,0,0,0,0,0,0,1757478.26231,0,0.06341553,99.08913,1676820299.263031,0,182416158,0,0,1,1676820299.235293,1,0.82,1
1676820300.46737,37,1676820300.232712,34.04828651433091,-117.813592254774,217.3133,1.199729,1.35814,28.992336509812,46.28158077843599,6.595669402256187,13.02062158569125,-9999,1676820300.451923,15.18438720703125,-20.99303436279297,-39.27633666992188,257.111572265625,245.6293334960938,12.4616584777832,1757481.380930875,-0.12542724609375,-0.40924072265625,-0.92724609375,1757481.352298875,0.4057981073856354,0.07134635001420975,1.305652856826782,1757481.372133875,-127.8355255126953,59.23931884765625,-321.2301330566406,1757481.338606875,0.7017555241188984,-0.2202669759740837,0.2592300497831208,1.164716482162476,-0.4830783307552338,1.504461646080017,0.1373067498207092,-0.2205618619918823,0.09196150302886963,2,0.1581037917353281,-0.05819070934117375,0.3254332790730098,0.9304355925512268,-0.2111898809671402,-0.2563363909721375,-0.9432340860366821,15.57774353027344,-19.57191467285156,-39.63650512695312,-1,2,1757468.787300875,4,2,1676820287.871968,0,0,0,0,0,0,0,0,0,1757478.26231,0,0.06341553,99.08913,1676820299.263031,0,182416158,0,0,1,1676820299.235293,1,0.82,1
1676820300.501409,38,1676820300.232712,34.04828651433091,-117.813592254774,217.3133,1.199729,1.35814,28.992336509812,46.28158077843599,6.595669402256187,13.02062158569125,-9999,1676820300.491513,15.75608062744141,-21.02060317993164,-38.61868286132812,255.1089782714844,243.6267395019531,12.45979499816895,1757481.414540875,0.119720458984375,-0.4604644775390625,-0.4494171142578125,1757481.385909875,-0.5529689192771912,1.035292983055115,0.7378638982772827,1757481.402160875,-127.1923675537109,59.51318359375,-321.00830078125,1757481.398357875,0.7630802078860265,-0.2024970516385801,0.2412462743200626,-0.4869337379932404,1.668991327285767,0.5634410977363586,0.2535803616046906,-0.1623627096414566,0.533673882484436,2,0.1484682490789191,-0.048550131517839,0.3564637163638374,0.9211589595979351,-0.1952918618917465,-0.2389129996299744,-0.9512001276016235,15.40033721923828,-21.09904098510742,-38.783447265625,-1,2,1757468.787300875,4,2,1676820287.871968,0,0,0,0,0,0,0,0,0,1757478.26231,0,0.06341553,99.08913,1676820299.263031,0,182416158,0,0,1,1676820299.235293,1,0.82,1
1676820300.536234,39,1676820300.232712,34.04828651433091,-117.813592254774,217.3133,1.199729,1.35814,28.992336509812,46.28158077843599,6.595669402256187,13.02062158569125,-9999,1676820300.531319,20.13331604003906,-21.08778762817383,-36.50790405273438,253.1465148925781,241.6642761230469,12.46005725860596,1757481.448150875,0.1460418701171875,-0.3474884033203125,-0.4626312255859375,1757481.419519875,-0.307012140750885,3.068958520889282,0.5569311380386353,1757481.432185875,-123.8980255126953,59.70584106445312,-319.3872680664062,1757481.398357875,0.7630802078860265,-0.2024970516385801,0.2412462743200626,-0.4869337379932404,1.668991327285767,0.5634410977363586,0.2535803616046906,-0.1623627096414566,0.533673882484436,2,0.1484682490789191,-0.048550131517839,0.3564637163638374,0.9211589595979351,-0.1952918618917465,-0.2389129996299744,-0.9512001276016235,15.40033721923828,-21.09904098510742,-38.783447265625,-1,2,1757468.787300875,4,2,1676820287.871968,0,0,0,0,0,0,0,0,0,1757478.26231,0,0.06341553,99.08913,1676820299.263031,0,182416158,0,0,1,1676820299.235293,1,0.82,1
1676820300.571079,40,1676820300.232712,34.04828651433091,-117.813592254774,217.3133,1.199729,1.35814,28.992336509812,46.28158077843599,6.595669402256187,13.02062158569125,-9999,1676820300.551364,23.02183532714844,-21.34703826904297,-34.80984497070312,252.3309783935547,240.8487396240234,12.46027565002441,1757481.481760875,-0.064788818359375,-0.40380859375,-0.3245697021484375,1757481.453129875,0.4762980937957764,4.133687019348145,0.2475240379571915,1757481.462209875,-119.4599914550781,59.02523803710938,-316.9599914550781,1757481.458108875,0.7883888580551182,-0.00700218082345249,0.2327243809173152,0.6842560768127441,3.799551248550415,0.1917987614870071,0.1178667768836021,-0.1148144602775574,0.4783279299736023,2,0.1085305284836458,0.04137880255538669,0.3810896328902401,0.9172131094288738,-0.006813358049839735,-0.2306293100118637,-0.9730178117752075,21.49318695068359,-21.01951599121094,-35.57656860351562,-1,2,1757468.787300875,4,2,1676820287.871968,0,0,0,0,0,0,0,0,0,1757478.26231,0,0.06341553,99.08913,1676820299.263031,0,182416158,0,0,1,1676820299.235293,1,0.82,1
1676820300.604486,41,1676820300.232712,34.04828651433091,-117.813592254774,217.3133,1.199729,1.35814,28.992336509812,46.28158077843599,6.595669402256187,13.02062158569125,-9999,1676820300.591354,27.85518646240234,-23.43464279174805,-30.08511352539062,251.0556945800781,239.5734558105469,12.4607629776001,1757481.515370875,0.43017578125,-0.2906646728515625,-0.022552490234375,1757481.486739875,1.844866991043091,3.558110237121582,0.1569424718618393,1757481.492233875,-115.6171264648438,57.47346496582031,-313.5108032226562,1757481.458108875,0.7883888580551182,-0.00700218082345249,0.2327243809173152,0.6842560768127441,3.799551248550415,0.1917987614870071,0.1178667768836021,-0.1148144602775574,0.4783279299736023,2,0.1085305284836458,0.04137880255538669,0.3810896328902401,0.9172131094288738,-0.006813358049839735,-0.2306293100118637,-0.9730178117752075,21.49318695068359,-21.01951599121094,-35.57656860351562,-1,2,1757468.787300875,4,2,1676820287.871968,0,0,0,0,0,0,0,0,0,1757478.26231,0,0.06341553,99.08913,1676820299.263031,0,182416158,0,0,1,1676820299.235293,1,0.82,1
1676820300.635764,42,1676820300.232712,34.04828651433091,-117.813592254774,217.3133,1.199729,1.35814,28.992336509812,46.28158077843599,6.595669402256187,13.02062158569125,-9999,1676820300.633444,33.542724609375,-26.44776153564453,-19.91305541992188,249.0207977294922,237.5385589599609,12.46178913116455,1757481.548980875,0.6408538818359375,-0.173736572265625,-0.0287628173828125,1757481.520350875,2.923684358596802,5.80866527557373,0.2850863337516785,1757481.522257875,-111.6878356933594,55.16989135742188,-307.4521179199219,1757481.517860875,0.7855020988285725,0.2302366168592436,0.3441166654420437,2.855212926864624,5.599679946899414,0.2995789349079132,0.2002253830432892,0.04036810994148254,0.8891285061836243,2,0.1138146642469716,0.1696454856585931,0.3927529687077158,0.8966670773613152,0.2148289531469345,-0.3373652696609497,-0.9165332913398743,29.15544891357422,-24.03644561767578,-28.02658081054688,-1,2,1757468.787300875,4,2,1676820287.871968,0,0,0,0,0,0,0,0,0,1757478.26231,0,0.06341553,99.08913,1676820299.263031,0,182416158,0,0,1,1676820299.235293,1,0.82,1
1676820300.670574,43,1676820300.232712,34.04828651433091,-117.813592254774,217.3133,1.199729,1.35814,28.992336509812,46.28158077843599,6.595669402256187,13.02062158569125,-9999,1676820300.651125,36.59366607666016,-27.46759033203125,-13.3387451171875,248.4211730957031,236.9389343261719,12.46253108978271,1757481.582590875,0.9315032958984375,-0.100738525390625,0.0211029052734375,1757481.553960875,3.814387559890747,7.636778831481934,-0.4312262237071991,1757481.582305875,-104.1837005615234,53.40081787109375,-286.5960083007812,1757481.577611875,0.6567556190936356,0.7169914583178609,0.5268823423717909,4.74891471862793,7.908886909484863,-1.123919367790222,0.3282853960990906,0.4005612134933472,0.6652593612670898,2,0.121566738040639,0.3993032358479698,0.3780704493022456,0.826342169532098,0.5680006146430969,-0.5028409361839294,-0.6515569090843201,37.83647918701172,-27.76351165771484,-9.777679443359375,-1,2,1757468.787300875,4,2,1676820287.871968,0,0,0,0,0,0,0,0,0,1757478.26231,0,0.06341553,99.08913,1676820299.263031,0,182416158,0,0,1,1676820299.235293,1,0.82,1
1676820300.705628,44,1676820300.232712,34.04828651433091,-117.813592254774,217.3133,1.199729,1.35814,28.992336509812,46.28158077843599,6.595669402256187,13.02062158569125,-9999,1676820300.690613,39.43178558349609,-26.27320098876953,2.6610107421875,250.2040710449219,238.7218322753906,12.46425724029541,1757481.616200875,1.108047485351562,0.040130615234375,0.1049652099609375,1757481.587569875,5.182549476623535,7.779782772064209,-1.473704695701599,1757481.612328875,-103.1853332519531,55.66496276855469,-274.2078247070312,1757481.577611875,0.6567556190936356,0.7169914583178609,0.5268823423717909,4.74891471862793,7.908886909484863,-1.123919367790222,0.3282853960990906,0.4005612134933472,0.6652593612670898,2,0.121566738040639,0.3993032358479698,0.3780704493022456,0.826342169532098,0.5680006146430969,-0.5028409361839294,-0.6515569090843201,37.83647918701172,-27.76351165771484,-9.777679443359375,-1,2,1757468.787300875,4,2,1676820287.871968,0,0,0,0,0,0,0,0,0,1757478.26231,0,0.06341553,99.08913,1676820299.263031,0,182416158,0,0,1,1676820299.235293,1,0.82,1
1676820300.735409,45,1676820300.232712,34.04828651433091,-117.813592254774,217.3133,1.199729,1.35814,28.992336509812,46.28158077843599,6.595669402256187,13.02062158569125,-9999,1676820300.730467,39.82981109619141,-18.22308731079102,18.39764404296875,260.7822875976562,249.300048828125,12.46627998352051,1757481.649811875,1.49615478515625,0.20849609375,-0.1423492431640625,1757481.621179875,6.270255565643311,7.212156772613525,-3.6506028175354,1757481.642350875,-103.3726654052734,63.37034606933594,-262.6461791992188,1757481.637362875,0.2186663848358555,1.394935484870404,0.5437433535100673,6.064066410064697,7.031235694885254,-5.235275268554688,0.4863090515136719,0.6855710744857788,0.1778301447629929,2,0.1370867986677663,0.6374523724880858,0.2520063430033278,0.715090760717416,0.8425791263580322,-0.5173431038856506,-0.1497233659029007,40.11257171630859,-20.96504211425781,14.85009765625,-1,2,1757468.787300875,4,2,1676820287.871968,0,0,0,0,0,0,0,0,0,1757478.26231,0,0.06341553,99.08913,1676820299.263031,0,182416158,0,0,1,1676820299.235293,1,0.82,1
1676820300.772136,46,1676820300.232712,34.04828651433091,-117.813592254774,217.3133,1.199729,1.35814,28.992336509812,46.28158077843599,6.595669402256187,13.02062158569125,-9999,1676820300.770364,35.85208892822266,-4.274696350097656,28.7142333984375,281.408203125,269.9259643554688,12.46824264526367,1757481.683421875,1.7900390625,0.12939453125,-0.3681488037109375,1757481.654790875,5.409958362579346,6.560018062591553,-6.50169563293457,1757481.672372875,-106.4198150634766,74.00135803222656,-255.0994415283203,1757481.637362875,0.2186663848358555,1.394935484870404,0.5437433535100673,6.064066410064697,7.031235694885254,-5.235275268554688,0.4863090515136719,0.6855710744857788,0.1778301447629929,2,0.1370867986677663,0.6374523724880858,0.2520063430033278,0.715090760717416,0.8425791263580322,-0.5173431038856506,-0.1497233659029007,40.11257171630859,-20.96504211425781,14.85009765625,-1,2,1757468.787300875,4,2,1676820287.871968,0,0,0,0,0,0,0,0,0,1757478.26231,0,0.06341553,99.08913,1676820299.263031,0,182416158,0,0,1,1676820299.235293,1,0.82,1
1676820300.805209,47,1676820300.232712,34.04828651433091,-117.813592254774,217.3133,1.199729,1.35814,28.992336509812,46.28158077843599,6.595669402256187,13.02062158569125,-9999,1676820300.790523,32.86441040039062,1.795120239257812,31.08088684082031,292.8262023925781,281.3439636230469,12.46889305114746,1757481.717031875,1.702285766601562,0.064788818359375,-0.6429595947265625,1757481.688400875,3.658570051193237,3.891073703765869,-6.681919097900391,1757481.702396875,-110.7615966796875,83.47917175292969,-250.9737701416016,1757481.697114875,-0.05298576832320035,1.832019348515668,0.1424447451760423,3.080204248428345,3.023167848587036,-6.498523712158203,0.7955254316329956,0.2512011229991913,-0.7267158031463623,2,0.0642796884814545,0.7897413673519966,0.04033333071408816,0.6087282262604753,0.9562904834747314,-0.1419635266065598,0.2556466162204742,34.21176147460938,-1.174613952636719,30.07417297363281,-1,2,1757468.787300875,4,2,1676820287.871968,0,0,0,0,0,0,0,0,0,1757478.26231,0,0.06341553,99.08913,1676820299.263031,0,182416158,0,0,1,1676820299.235293,1,0.82,1
1676820300.841926,48,1676820300.232712,34.04828651433091,-117.813592254774,217.3133,1.199729,1.35814,28.992336509812,46.28158077843599,6.595669402256187,13.02062158569125,-9999,1676820300.830693,29.55854034423828,10.592529296875,30.91033935546875,309.8645324707031,298.3822937011719,12.46999645233154,1757481.750641875,2.263656616210938,0.4381256103515625,-0.357086181640625,1757481.722010875,1.087033867835999,-0.1271960288286209,-6.138184547424316,1757481.732422875,-113.5376892089844,90.14836120605469,-251.2304229736328,1757481.697114875,-0.05298576832320035,1.832019348515668,0.1424447451760423,3.080204248428345,3.023167848587036,-6.498523712158203,0.7955254316329956,0.2512011229991913,-0.7267158031463623,2,0.0642796884814545,0.7897413673519966,0.04033333071408816,0.6087282262604753,0.9562904834747314,-0.1419635266065598,0.2556466162204742,34.21176147460938,-1.174613952636719,30.07417297363281,-1,2,1757468.787300875,4,2,1676820287.871968,0,0,0,0,0,0,0,0,0,1757478.26231,0,0.06341553,99.08913,1676820299.263031,0,182416158,0,0,1,1676820299.235293,1,0.82,1
1676820300.869843,49,1676820300.232712,34.04828651433091,-117.813592254774,217.3133,1.199729,1.35814,28.992336509812,46.28158077843599,6.595669402256187,13.02062158569125,-9999,1676820300.850231,28.2677001953125,13.59363555908203,30.560546875,314.9777221679688,303.4954833984375,12.47057819366455,1757481.784251875,2.28375244140625,0.3849029541015625,-0.0177001953125,1757481.755620875,-0.9517426490783691,-2.098363637924194,-6.112009048461914,1757481.762449875,-115.0984954833984,94.75643920898438,-251.9369506835938,1757481.756865875,0.007976676140461464,1.830603447773419,-0.2233079110853267,-0.9690729975700378,-2.090965509414673,-6.115211009979248,1.375412702560425,0.2321109026670456,-0.575527548789978,2,-0.07105901025530265,0.7875331180427081,-0.08591282116179257,0.6061034417229278,0.942443311214447,0.2214566022157669,0.2505155801773071,28.96199798583984,11.93411254882812,30.66696166992188,-1,2,1757468.787300875,4,2,1676820287.871968,0,0,0,0,0,0,0,0,0,1757478.26231,0,0.06341553,99.08913,1676820299.263031,0,182416158,0,0,1,1676820299.235293,1,0.82,1
1676820300.905313,50,1676820300.232712,34.04828651433091,-117.813592254774,217.3133,1.199729,1.35814,28.992336509812,46.28158077843599,6.595669402256187,13.02062158569125,-9999,1676820300.890209,24.74272155761719,18.87158203125,29.03944396972656,326.0238647460938,314.5416259765625,12.47131538391113,1757481.817861875,1.922454833984375,0.4853515625,0.0752410888671875,1757481.789231875,0.09941153973340988,-1.204735279083252,-5.643074035644531,1757481.792475875,-117.6669006347656,98.36111450195312,-253.1195526123047,1757481.756865875,0.007976676140461464,1.830603447773419,-0.2233079110853267,-0.9690729975700378,-2.090965509414673,-6.115211009979248,1.375412702560425,0.2321109026670456,-0.575527548789978,2,-0.07105901025530265,0.7875331180427081,-0.08591282116179257,0.6061034417229278,0.942443311214447,0.2214566022157669,0.2505155801773071,28.96199798583984,11.93411254882812,30.66696166992188,-1,2,1757468.787300875,4,2,1676820287.871968,0,0,0,0,0,0,0,0,0,1757478.26231,0,0.06341553,99.08913,1676820299.263031,0,182416158,0,0,1,1676820299.235293,1,0.82,1
1676820300.939527,51,1676820300.232712,34.04828651433091,-117.813592254774,217.3133,1.199729,1.35814,28.992336509812,46.28158077843599,6.595669402256187,13.02062158569125,-9999,1676820300.929964,21.59056091308594,24.57074737548828,25.72857666015625,338.1948547363281,326.7126159667969,12.47182559967041,1757481.851471875,1.969345092773438,0.299346923828125,-0.027923583984375,1757481.822841875,2.230677604675293,-1.158517122268677,-3.911186456680298,1757481.852527875,-122.3055572509766,107.3517303466797,-258.1800537109375,1757481.816616875,0.07861597061812001,1.764692829962736,-0.5459933882613182,1.886531949043274,-1.259284734725952,-4.277071952819824,1.143778800964355,-0.06902617216110229,-0.09574580192565918,2,-0.2003904771920877,0.7363278011854856,-0.1840040634959695,0.6195221861274349,0.8385974764823914,0.5192673206329346,0.1646699458360672,23.89671325683594,20.29434204101562,28.42115783691406,-1,2,1757468.787300875,4,2,1676820287.871968,0,0,0,0,0,0,0,0,0,1757479.262887,0,-0.0052948,99.08993,1676820299.263031,0,182416158,0,0,1,1676820299.235293,1,0.82,1
1676820300.974385,52,1676820300.232712,34.04828651433091,-117.813592254774,217.3133,1.199729,1.35814,28.992336509812,46.28158077843599,6.595669402256187,13.02062158569125,-9999,1676820300.969564,20.54511260986328,29.29541015625,20.4957275390625,346.0830078125,334.6007690429688,12.47252655029297,1757481.885081875,1.708450317382812,0.145111083984375,-0.123504638671875,1757481.856450875,3.152758836746216,-1.394160270690918,-2.405407190322876,1757481.882551875,-122.5195159912109,110.1936798095703,-262.4510498046875,1757481.876368875,-0.1079765172717816,1.570316456527042,-0.7292896518551208,2.860383272171021,-1.874460577964783,-1.141797661781311,1.039172649383545,-0.5554239153862,-0.1503073573112488,2,-0.2162200887320686,0.673104721453086,-0.2873954296456849,0.6462065896516078,0.7456480860710144,0.6663401126861572,-0.0003578143659979105,20.48138427734375,28.30079650878906,21.73141479492188,-1,2,1757468.787300875,4,2,1676820287.871968,0,0,0,0,0,0,0,0,0,1757479.262887,0,-0.0052948,99.08993,1676820299.263031,0,182416158,0,0,1,1676820299.235293,1,0.82,1
1676820301.004441,53,1676820300.232712,34.04828651433091,-117.813592254774,217.3133,1.199729,1.35814,28.992336509812,46.28158077843599,6.595669402256187,13.02062158569125,-9999,1676820300.989539,21.13287353515625,30.15681457519531,18.41845703125,346.7749328613281,335.2926940917969,12.47283935546875,1757481.918692875,1.449111938476562,0.33770751953125,-0.0527496337890625,1757481.890060875,2.422087669372559,-2.137119293212891,-0.349897563457489,1757481.912578875,-121.5189056396484,111.2172698974609,-265.7250366210938,1757481.876368875,-0.1079765172717816,1.570316456527042,-0.7292896518551208,2.860383272171021,-1.874460577964783,-1.141797661781311,1.039172649383545,-0.5554239153862,-0.1503073573112488,2,-0.2162200887320686,0.673104721453086,-0.2873954296456849,0.6462065896516078,0.7456480860710144,0.6663401126861572,-0.0003578143659979105,20.48138427734375,28.30079650878906,21.73141479492188,-1,2,1757468.787300875,4,2,1676820287.871968,0,0,0,0,0,0,0,0,0,1757479.262887,0,-0.0052948,99.08993,1676820299.263031,0,182416158,0,0,1,1676820299.235293,1,0.82,1
1676820301.040663,54,1676820300.232712,34.04828651433091,-117.813592254774,217.3133,1.199729,1.35814,28.992336509812,46.28158077843599,6.595669402256187,13.02062158569125,-9999,1676820301.029475,23.07587432861328,31.01732635498047,15.00326538085938,344.1764221191406,332.6941833496094,12.47342395782471,1757481.952302875,1.298736572265625,0.4992828369140625,0.124542236328125,1757481.923671875,0.8692022562026978,-2.25731372833252,0.5160257816314697,1757481.942605875,-119.7104339599609,111.606689453125,-267.6641235351562,1757481.936119875,-0.2376947067423653,1.351431126058806,-0.7173478313085125,0.4723109006881714,-2.574668169021606,0.6142591834068298,0.6545056700706482,-0.3143250346183777,0.09263052046298981,2,-0.2025250210891983,0.6139978418144784,-0.3046330775699574,0.6994205796593507,0.7354938387870789,0.65738844871521,-0.1639805287122726,22.31256866455078,30.7991943359375,15.53671264648438,-1,2,1757468.787300875,4,2,1676820287.871968,0,0,0,0,0,0,0,0,0,1757479.262887,0,-0.0052948,99.08993,1676820299.263031,0,182416158,0,0,1,1676820299.235293,1,0.82,1
