loggingTime,loggingSample,locationTimestamp_since1970,locationLatitude,locationLongitude,locationAltitude,locationSpeed,locationSpeedAccuracy,locationCourse,locationCourseAccuracy,locationVerticalAccuracy,locationHorizontalAccuracy,locationFloor,locationHeadingTimestamp_since1970,locationHeadingX,locationHeadingY,locationHeadingZ,locationTrueHeading,locationMagneticHeading,locationHeadingAccuracy,accelerometerTimestamp_sinceReboot,accelerometerAccelerationX,accelerometerAccelerationY,accelerometerAccelerationZ,gyroTimestamp_sinceReboot,gyroRotationX,gyroRotationY,gyroRotationZ,magnetometerTimestamp_sinceReboot,magnetometerX,magnetometerY,magnetometerZ,motionTimestamp_sinceReboot,motionYaw,motionRoll,motionPitch,motionRotationRateX,motionRotationRateY,motionRotationRateZ,motionUserAccelerationX,motionUserAccelerationY,motionUserAccelerationZ,motionAttitudeReferenceFrame,motionQuaternionX,motionQuaternionY,motionQuaternionZ,motionQuaternionW,motionGravityX,motionGravityY,motionGravityZ,motionMagneticFieldX,motionMagneticFieldY,motionMagneticFieldZ,motionHeading,motionMagneticFieldCalibrationAccuracy,activityTimestamp_sinceReboot,activity,activityActivityConfidence,activityActivityStartDate,pedometerStartDate,pedometerNumberofSteps,pedometerAverageActivePace,pedometerCurrentPace,pedometerCurrentCadence,pedometerDistance,pedometerFloorAscended,pedometerFloorDescended,pedometerEndDate,altimeterTimestamp_sinceReboot,altimeterReset,altimeterRelativeAltitude,altimeterPressure,IP_Timestamp_since1970,IP_en0,IP_pdp_ip0,deviceID,deviceOrientationTimeStamp_since1970,deviceOrientation,batteryTimeStamp_since1970,batteryState,batteryLevel,label
1676829319.871993,1,1676829319.00097,34.05293395901629,-117.819872580386,218.0782,0,1.170242,13.7926553448542,180,3.232191381275162,4.835025946941691,-9999,1676829319.864417,-8.450515747070312,9.075546264648438,-44.08837890625,27.15918731689453,15.67696094512939,12.21907234191895,1764233.238328292,0.106689453125,-0.3905487060546875,-0.9450836181640625,1764233.233349292,-0.5017688274383545,0.08337318897247314,0.5606300234794617,1764233.223002292,-149.3896026611328,84.03399658203125,-326.2562561035156,1764233.193510292,-0.8133072031741793,0.1046172749266004,0.4073998032237766,-0.6402295827865601,0.8223998546600342,0.509422779083252,0.04503520578145981,-0.01777809858322144,0.02673596143722534,2,0.2057958730225178,-0.03287748849683113,-0.3771160637655238,0.9024137000660197,0.09587966650724411,-0.3962232768535614,-0.9131342768669128,-9.357742309570312,7.971435546875,-44.23782348632812,-1,2,1764233.062791292,1,2,1676829319.681582,1676828598.712269,1215,0.7487738,0,0,935.7173,0,1,1676829315.85709,1764230.493732,0,1.98703,99.14559,0,0,0,0,0,1,1676829319.851255,1,0.55,1
1676829319.928947,2,1676829319.00097,34.05293395901629,-117.819872580386,218.0782,0,1.170242,13.7926553448542,180,3.232191381275162,4.835025946941691,-9999,1676829319.924258,-9.606948852539062,9.121780395507812,-43.83505249023438,26.91912651062012,15.43690013885498,12.21218585968018,1764233.298082542,-0.0041351318359375,-0.323089599609375,-0.9113006591796875,1764233.293102542,0.1359439790248871,-0.4690495133399963,0.7188338041305542,1764233.283052542,-150.4110260009766,84.23890686035156,-326.329833984375,1764233.253264542,-0.7866086896757035,0.1078299184806256,0.376109755996524,0.04317675158381462,-0.632925271987915,0.3170080482959747,-0.004059627652168274,0.01278227567672729,-0.02264338731765747,2,0.1927119689390288,-0.02264571018521638,-0.3666335989963074,0.9099060769838081,0.1000984236598015,-0.3673049509525299,-0.924698531627655,-8.619705200195312,9.612045288085938,-43.93359375,-1,2,1764233.062791292,1,2,1676829319.681582,1676828598.712269,1215,0.7487738,0,0,935.7173,0,1,1676829315.85709,1764230.493732,0,1.98703,99.14559,1676829319.880009,0,182416158,0,0,1,1676829319.851255,1,0.55,1
1676829319.98882,3,1676829319.00097,34.05293395901629,-117.819872580386,218.0782,0,1.170242,13.7926553448542,180,3.232191381275162,4.835025946941691,-9999,1676829319.983979,-8.065322875976562,9.900886535644531,-43.21426391601562,23.00734710693359,11.52512168884277,12.20554351806641,1764233.357839542,0.11773681640625,-0.3397674560546875,-0.8709564208984375,1764233.352860542,-0.9238892197608948,0.3111128807067871,1.600522756576538,1764233.343105542,-149.0343475341797,84.97746276855469,-326.0816650390625,1764233.313021542,-0.7626095594199696,0.06050353091291703,0.3866185308664835,-0.1024675741791725,0.1729195415973663,1.157230854034424,-0.03351210057735443,0.07954287528991699,0.05048644542694092,2,0.1892750760232009,-0.04390477356833872,-0.3596400179772569,0.9126369836843518,0.05600354447960854,-0.3770586848258972,-0.9244946241378784,-9.452102661132812,9.355522155761719,-44.30783081054688,-1,2,1764233.062791292,1,2,1676829319.681582,1676828598.712269,1215,0.7487738,0,0,935.7173,0,1,1676829315.85709,1764230.493732,0,1.98703,99.14559,1676829319.880009,0,182416158,0,0,1,1676829319.851255,1,0.55,1
1676829320.051174,4,1676829319.00097,34.05293395901629,-117.819872580386,218.0782,0,1.170242,13.7926553448542,180,3.232191381275162,4.835025946941691,-9999,1676829320.043557,-6.77880859375,12.43631744384766,-42.35858154296875,18.47001457214355,6.987788200378418,12.20184516906738,1764233.417597542,0.0203704833984375,-0.241424560546875,-1.0076904296875,1764233.412617542,-0.7472763657569885,0.9115712642669678,0.6150663495063782,1764233.403161542,-147.8407440185547,87.31330871582031,-325.3239135742188,1764233.372779542,-0.6759500227269001,0.05051168130564339,0.3470251143147049,-1.263344526290894,0.027262132614851,1.643089294433594,0.06158940121531487,-0.07428109645843506,0.08368998765945435,2,0.1710721547134245,-0.03375952733853621,-0.3223812157002747,0.9304111865313791,0.04748041555285454,-0.3401017785072327,-0.9391891956329346,-7.840194702148438,10.80834197998047,-42.804931640625,-1,2,1764233.062791292,1,2,1676829319.681582,1676828598.712269,1215,0.7487738,0,0,935.7173,0,1,1676829315.85709,1764230.493732,0,1.98703,99.14559,1676829319.880009,0,182416158,0,0,1,1676829319.851255,1,0.55,1
1676829320.108446,5,1676829319.00097,34.05293395901629,-117.819872580386,218.0782,0,1.170242,13.7926553448542,180,3.232191381275162,4.835025946941691,-9999,1676829320.103444,-5.675308227539062,12.64022827148438,-42.26712036132812,18.2325325012207,6.750305652618408,12.20363521575928,1764233.477355542,-0.0753631591796875,-0.3509368896484375,-0.8616485595703125,1764233.472375542,-0.006783337332308292,-0.2416451126337051,0.1130253523588181,1764233.463222542,-146.2958679199219,87.71359252929688,-324.8348388671875,1764233.432536542,-0.6205086154889797,0.06666297044690901,0.2918783723175628,-0.2983139753341675,0.7965375185012817,-0.09173856675624847,0.1183479726314545,0.100495845079422,0.07557296752929688,2,0.1484678502685735,-0.01297581518124923,-0.2972727723445203,0.9430895131314614,0.06379618495702744,-0.2877516448497772,-0.9555778503417969,-5.640716552734375,12.63963317871094,-42.11898803710938,-1,2,1764233.062791292,1,2,1676829319.681582,1676828598.712269,1215,0.7487738,0,0,935.7173,0,1,1676829315.85709,1764230.493732,0,1.98703,99.14559,1676829319.880009,0,182416158,0,0,1,1676829319.851255,1,0.55,1
1676829320.170038,6,1676829319.00097,34.05293395901629,-117.819872580386,218.0782,0,1.170242,13.7926553448542,180,3.232191381275162,4.835025946941691,-9999,1676829320.162948,-5.236907958984375,13.60710144042969,-41.13388061523438,17.48830413818359,6.006077766418457,12.20528984069824,1764233.537112542,0.1184234619140625,-0.19732666015625,-0.874786376953125,1764233.532132542,-0.7313061356544495,0.02561428397893906,0.08043412119150162,1764233.523282542,-145.8800811767578,88.44953918457031,-323.94482421875,1764233.492294542,-0.6186661048402333,0.0643809714694125,0.2848099918793047,-0.2102522701025009,0.02017962373793125,0.2933996617794037,-0.1055984795093536,-0.08706682920455933,-0.01184719800949097,2,0.1448166257333792,-0.01283565467388829,-0.2968347549186399,0.9437969035355257,0.06174471229314804,-0.2809751033782959,-0.957726776599884,-5.436935424804688,13.07860565185547,-41.69515991210938,-1,2,1764233.062791292,1,2,1676829319.681582,1676828598.712269,1215,0.7487738,0,0,935.7173,0,1,1676829315.85709,1764230.493732,0,1.98703,99.14559,1676829319.880009,0,182416158,0,0,1,1676829319.851255,1,0.55,1
1676829320.22775,7,1676829320.000979,34.05293321500844,-117.8198579764626,217.8642,0,1.380374,13.79266197636514,180,3.222046083982326,4.841792649988535,-9999,1676829320.223052,-5.229904174804688,15.02188110351562,-40.82931518554688,18.24076652526855,6.758540153503418,12.20680809020996,1764233.596870542,0.22723388671875,-0.282318115234375,-0.896240234375,1764233.591890542,-0.4425446689128876,0.4596879780292511,-0.6684342622756958,1764233.583342542,-146.4676818847656,90.27247619628906,-323.7690734863281,1764233.552052542,-0.6082835929289232,0.06565062935163209,0.2503806050991422,-0.6428043842315674,0.1817111074924469,-0.07640162110328674,0.05677295476198196,0.03840692341327667,0.09826189279556274,2,0.1288203454379539,-0.006305218113674946,-0.2930608472599343,0.9473545827700846,0.06355784088373184,-0.2477727085351944,-0.9667311310768127,-4.989288330078125,14.028564453125,-41.056396484375,-1,2,1764233.062791292,1,2,1676829319.681582,1676828598.712269,1215,0.7487738,0,0,935.7173,0,1,1676829315.85709,1764230.493732,0,1.98703,99.14559,1676829319.880009,0,182416158,0,0,1,1676829319.851255,1,0.55,1
1676829320.288558,8,1676829320.000979,34.05293321500844,-117.8198579764626,217.8642,0,1.380374,13.79266197636514,180,3.222046083982326,4.841792649988535,-9999,1676829320.282593,-3.783065795898438,15.28778076171875,-40.575927734375,18.74075317382812,7.258525848388672,12.20799541473389,1764233.656627542,0.2359466552734375,-0.344390869140625,-0.6038665771484375,1764233.651648542,0.3720326721668243,1.010271191596985,0.332193911075592,1764233.643402542,-145.0580749511719,90.59275817871094,-323.4473876953125,1764233.611809542,-0.6347045137918667,0.09250559667320593,0.2181736150955955,-0.1067292392253876,0.4662079513072968,-0.4558845162391663,0.09871985018253326,-0.08648580312728882,0.1024912595748901,2,0.1176658838684236,0.009729426301769872,-0.3050831104165606,0.9449785090467347,0.09018394351005554,-0.2164468914270401,-0.9721201658248901,-5.360610961914062,15.53453063964844,-40.34378051757812,-1,2,1764233.062791292,1,2,1676829319.681582,1676828598.712269,1215,0.7487738,0,0,935.7173,0,1,1676829315.85709,1764230.493732,0,1.98703,99.14559,1676829319.880009,0,182416158,0,0,1,1676829319.851255,1,0.55,1
1676829320.347253,9,1676829320.000979,34.05293321500844,-117.8198579764626,217.8642,0,1.380374,13.79266197636514,180,3.222046083982326,4.841792649988535,-9999,1676829320.342618,-1.45733642578125,14.84918212890625,-39.80319213867188,17.62109375,6.13886833190918,12.20785999298096,1764233.716385542,0.34844970703125,-0.2315673828125,-0.8278350830078125,1764233.711405542,-0.1369727700948715,0.9609007239341736,0.02405260503292084,1764233.703462542,-142.4612274169922,89.76689147949219,-322.7188720703125,1764233.671567542,-0.6304028403921542,0.1426451721494167,0.2337055432267241,0.4318738877773285,1.398009419441223,0.2815738618373871,0.1934135556221008,-0.1403032392263412,0.3532390594482422,2,0.132502614446782,0.03123827860730022,-0.2992121656570457,0.9444253611209841,0.1382972300052643,-0.231583908200264,-0.9629344344139099,-3.117019653320312,15.08380126953125,-40.86166381835938,-1,2,1764233.062791292,1,2,1676829319.681582,1676828598.712269,1215,0.7487738,0,0,935.7173,0,1,1676829315.85709,1764230.493732,0,1.98703,99.14559,1676829319.880009,0,182416158,0,0,1,1676829319.851255,1,0.55,1
1676829320.409128,10,1676829320.000979,34.05293321500844,-117.8198579764626,217.8642,0,1.380374,13.79266197636514,180,3.222046083982326,4.841792649988535,-9999,1676829320.402091,-0.49859619140625,16.29224395751953,-39.0194091796875,18.1416187286377,6.6593918800354,12.20931529998779,1764233.776142542,0.361328125,-0.179901123046875,-1.100814819335938,1764233.771163542,-0.7871909737586975,0.4045639932155609,-0.4943327605724335,1764233.763522542,-141.5505523681641,91.48863220214844,-321.4578857421875,1764233.731324542,-0.6260695179465858,0.2074168000489177,0.2355962867766711,-0.5809897780418396,0.7104076743125916,-0.1688890904188156,0.1039552688598633,0.1154571771621704,0.07200169563293457,2,0.142872347279508,0.06181185254138305,-0.2925947659608175,0.9434803015233238,0.2002439349889755,-0.2334228456020355,-0.9515335559844971,-0.7024383544921875,15.12445068359375,-40.08209228515625,-1,2,1764233.062791292,1,2,1676829319.681582,1676828598.712269,1215,0.7487738,0,0,935.7173,0,1,1676829315.85709,1764230.493732,0,1.98703,99.14559,1676829319.880009,0,182416158,0,0,1,1676829319.851255,1,0.55,1
1676829320.466764,11,1676829320.000979,34.05293321500844,-117.8198579764626,217.8642,0,1.380374,13.79266197636514,180,3.222046083982326,4.841792649988535,-9999,1676829320.462016,-0.1349334716796875,17.71128082275391,-37.80569458007812,16.47131729125977,4.989090919494629,12.20920276641846,1764233.835900542,0.04150390625,-0.2583770751953125,-1.44622802734375,1764233.830920542,-1.027514696121216,-0.07721569389104843,1.054940462112427,1764233.823571542,-141.1697540283203,92.62568664550781,-320.4961242675781,1764233.791082542,-0.6369948438740706,0.2353887487025678,0.1860475278014186,-0.7454802989959717,0.1849295198917389,0.06866681575775146,0.005590632557868958,-0.09952399134635925,-0.1743622422218323,2,0.124218465997729,0.08214891186484714,-0.2992702734822897,0.9424747690496821,0.2291963398456573,-0.1849760860204697,-0.9556426405906677,-0.829345703125,17.01837158203125,-38.40951538085938,-1,2,1764233.062791292,1,2,1676829319.681582,1676828598.712269,1215,0.7487738,0,0,935.7173,0,1,1676829315.85709,1764230.493732,0,1.98703,99.14559,1676829319.880009,0,182416158,0,0,1,1676829319.851255,1,0.55,1
1676829320.529088,12,1676829320.000979,34.05293321500844,-117.8198579764626,217.8642,0,1.380374,13.79266197636514,180,3.222046083982326,4.841792649988535,-9999,1676829320.521621,0.42755126953125,19.88227844238281,-35.95803833007812,12.30193328857422,0.8197072148323059,12.21058464050293,1764233.895658542,0.009521484375,-0.04327392578125,-1.54608154296875,1764233.890678542,-1.417779564857483,-0.4201373755931854,0.9573028087615967,1764233.883626542,-140.7518157958984,94.5,-318.4921875,1764233.850839542,-0.5751977569129147,0.2275201177574537,0.142168399102382,-1.329256057739258,-0.06928248703479767,1.112703561782837,-0.1945390254259109,-0.04729007184505463,-0.5388197302818298,2,0.09978423922715679,0.0885617628140295,-0.2733742409439257,0.952610247974415,0.2232865691184998,-0.1416899710893631,-0.9643998146057129,-0.0073089599609375,18.56052398681641,-37.25564575195312,-1,2,1764233.062791292,1,2,1676829319.681582,1676828598.712269,1215,0.7487738,0,0,935.7173,0,1,1676829315.85709,1764230.493732,0,1.98703,99.14559,1676829319.880009,0,182416158,0,0,1,1676829319.851255,1,0.55,1
1676829320.586249,13,1676829320.000979,34.05293321500844,-117.8198579764626,217.8642,0,1.380374,13.79266197636514,180,3.222046083982326,4.841792649988535,-9999,1676829320.581558,-0.7493743896484375,21.29834747314453,-35.18218994140625,10.92552471160889,359.4432983398438,12.21252822875977,1764233.955415542,-0.0779876708984375,0.07879638671875,-1.229232788085938,1764233.950435542,-0.4013665914535522,-1.059832334518433,-0.2238599956035614,1764233.943684542,-141.4333190917969,95.90983581542969,-317.7345581054688,1764233.910597542,-0.4991753980532318,0.2023530748903241,0.07364405013934613,-1.114489078521729,-0.6972875595092773,0.6430649161338806,-0.1983855366706848,0.06413234770298004,-0.5123624205589294,2,0.06042210912264398,0.08876134246406682,-0.2419715930429443,0.9643237329073663,0.2004301995038986,-0.07357750087976456,-0.9769411683082581,0.2228240966796875,20.27797698974609,-35.42645263671875,-1,2,1764233.062791292,1,2,1676829319.681582,1676828598.712269,1215,0.7487738,0,0,935.7173,0,1,1676829315.85709,1764230.493732,0,1.98703,99.14559,1676829319.880009,0,182416158,0,0,1,1676829319.851255,1,0.55,1
1676829320.649347,14,1676829320.000979,34.05293321500844,-117.8198579764626,217.8642,0,1.380374,13.79266197636514,180,3.222046083982326,4.841792649988535,-9999,1676829320.641252,-2.443038940429688,21.50699615478516,-35.92709350585938,12.61264038085938,1.130413770675659,12.21450138092041,1764234.015173542,-0.13702392578125,-0.05450439453125,-1.045486450195312,1764234.010193542,0.5988040566444397,-0.7072271704673767,-0.513080894947052,1764234.003736542,-143.5715942382812,96.41065979003906,-318.5008850097656,1764233.970354542,-0.4929742357838758,0.1430272530522832,0.03911036896327896,-0.08190686255693436,-0.9584639072418213,-0.5075969099998474,-0.285634845495224,0.08818796277046204,-0.1832853555679321,2,0.03634549559892074,0.0645208775071934,-0.2419736173193149,0.9674527495040521,0.1424311101436615,-0.03910039737820625,-0.9890321493148804,-1.109695434570312,21.49821472167969,-35.47756958007812,-1,2,1764233.062791292,1,2,1676829319.681582,1676828598.712269,1215,0.7487738,0,0,935.7173,0,1,1676829315.85709,1764230.493732,0,1.98703,99.14559,1676829319.880009,0,182416158,0,0,1,1676829319.851255,1,0.55,1
1676829320.705655,15,1676829320.000979,34.05293321500844,-117.8198579764626,217.8642,0,1.380374,13.79266197636514,180,3.222046083982326,4.841792649988535,-9999,1676829320.700885,-4.039230346679688,19.94136810302734,-37.13616943359375,14.31088066101074,2.828654289245605,12.21647548675537,1764234.074930542,-0.0801544189453125,-0.1624755859375,-0.9282073974609375,1764234.069950542,1.036730289459229,-0.3305827081203461,-0.1711168885231018,1764234.063789542,-145.1619567871094,94.72709655761719,-319.726806640625,1764234.030112542,-0.5271694830982491,0.09836288872899367,0.05976563553582249,0.8761026859283447,-0.6573512554168701,-0.4933307766914368,-0.2302769422531128,-0.03195995464920998,-0.03523600101470947,2,0.04161456432554836,0.03966730410607696,-0.258693800878176,0.9642469498401459,0.0980290099978447,-0.05973006039857864,-0.9933894872665405,-3.030426025390625,21.37114715576172,-36.11688232421875,-1,2,1764233.062791292,1,2,1676829319.681582,1676828598.712269,1215,0.7487738,0,0,935.7173,0,1,1676829315.85709,1764231.494302,0,1.971176,99.14577,1676829319.880009,0,182416158,0,0,1,1676829319.851255,1,0.55,1
1676829320.768298,16,1676829320.000979,34.05293321500844,-117.8198579764626,217.8642,0,1.380374,13.79266197636514,180,3.222046083982326,4.841792649988535,-9999,1676829320.760547,-4.00030517578125,17.65982055664062,-39.39688110351562,14.42947483062744,2.947248220443726,12.21843147277832,1764234.134688542,0.0390777587890625,-0.2179107666015625,-0.844818115234375,1764234.129708542,1.24471116065979,0.4123228490352631,-0.05063468217849731,1764234.123849542,-144.9428253173828,92.47683715820312,-322.1221923828125,1764234.089870542,-0.548806338244151,0.07309906804225648,0.1181274271488614,1.094045639038086,-0.08148805052042007,-0.04659612849354744,-0.126678466796875,-0.04828474670648575,0.09207898378372192,2,0.06666742092928604,0.01912828626459903,-0.268243014919089,0.9608512565832739,0.0725250169634819,-0.1178528890013695,-0.9903791546821594,-4.277862548828125,19.41498565673828,-37.68618774414062,-1,2,1764233.062791292,1,2,1676829319.681582,1676828598.712269,1215,0.7487738,0,0,935.7173,0,1,1676829315.85709,1764231.494302,0,1.971176,99.14577,1676829319.880009,0,182416158,0,0,1,1676829319.851255,1,0.55,1
1676829320.825177,17,1676829320.000979,34.05293321500844,-117.8198579764626,217.8642,0,1.380374,13.79266197636514,180,3.222046083982326,4.841792649988535,-9999,1676829320.820549,-3.253662109375,15.58613586425781,-40.06439208984375,14.23319053649902,2.750963687896729,12.2203540802002,1764234.194445542,0.1628570556640625,-0.161712646484375,-0.781585693359375,1764234.189466542,0.7037395238876343,0.1929010152816772,-0.1084058359265327,1764234.183904542,-144.2915344238281,90.38560485839844,-322.4711608886719,1764234.149627542,-0.5556595580057204,0.09124803141190095,0.1899882773179256,1.099831819534302,0.3137717247009277,0.1427926570177078,-0.05783513188362122,-0.08150780200958252,0.04296928644180298,2,0.1035716708016631,0.0176737705947148,-0.2685885072159349,0.9575076129732478,0.08948186039924622,-0.1888473778963089,-0.9779210686683655,-3.838287353515625,17.05028533935547,-39.94638061523438,-1,2,1764233.062791292,1,2,1676829319.681582,1676828598.712269,1215,0.7487738,0,0,935.7173,0,1,1676829315.85709,1764231.494302,0,1.971176,99.14577,1676829319.880009,0,182416158,0,0,1,1676829319.851255,1,0.55,1
1676829320.889749,18,1676829320.000979,34.05293321500844,-117.8198579764626,217.8642,0,1.380374,13.79266197636514,180,3.222046083982326,4.841792649988535,-9999,1676829320.880138,-3.961563110351562,14.97259521484375,-41.07122802734375,15.77119541168213,4.288969039916992,12.22224617004395,1764234.254203875,0.0777740478515625,-0.364593505859375,-0.9049530029296875,1764234.249223542,-0.8233868479728699,-0.7179131507873535,-0.01291926112025976,1764234.243957542,-145.0866241455078,89.94535827636719,-323.8166198730469,1764234.209385542,-0.5636992364430957,0.1028670128854327,0.237783273144119,0.5045803785324097,-0.01473431847989559,-0.9131991267204285,0.1366233080625534,0.02545064687728882,0.2016341686248779,2,0.1279790759637705,0.0160875042782847,-0.2699468261760243,0.9541965856439145,0.09979637712240219,-0.2355488538742065,-0.9667251110076904,-2.937820434570312,15.05995941162109,-40.52325439453125,-1,2,1764233.062791292,1,2,1676829319.681582,1676828598.712269,1215,0.7487738,0,0,935.7173,0,1,1676829315.85709,1764231.494302,0,1.971176,99.14577,1676829319.880009,0,182416158,0,0,1,1676829319.851255,1,0.55,1
1676829320.944777,19,1676829320.000979,34.05293321500844,-117.8198579764626,217.8642,0,1.380374,13.79266197636514,180,3.222046083982326,4.841792649988535,-9999,1676829320.940058,-4.6435546875,16.54826354980469,-40.23434448242188,15.60091781616211,4.118691444396973,12.22410202026367,1764234.313960875,0.0910797119140625,-0.2044677734375,-0.8998870849609375,1764234.308981875,0.2279279679059982,0.2477618604898453,-0.09048542380332947,1764234.304011875,-145.6452331542969,91.58522033691406,-322.7630004882812,1764234.269142875,-0.5766480116059244,0.07259988802474908,0.2139862439176602,-0.6825135350227356,-0.270823210477829,0.1485186368227005,-0.04246988147497177,-0.1414638459682465,0.3033991456031799,2,0.1125740630525537,0.00424990760096592,-0.278817994164509,0.9537134872928434,0.07088173925876617,-0.21235691010952,-0.9746180176734924,-4.34478759765625,15.797119140625,-40.76544189453125,-1,2,1764233.062791292,1,2,1676829319.681582,1676828598.712269,1215,0.7487738,0,0,935.7173,0,1,1676829315.85709,1764231.494302,0,1.971176,99.14577,1676829319.880009,0,182416158,0,0,1,1676829319.851255,1,0.55,1
1676829321.011279,20,1676829320.000979,34.05293321500844,-117.8198579764626,217.8642,0,1.380374,13.79266197636514,180,3.222046083982326,4.841792649988535,-9999,1676829320.999599,-4.7384033203125,15.96861267089844,-40.39761352539062,15.85378456115723,4.371558666229248,12.22590255737305,1764234.373718875,0.13983154296875,-0.3431854248046875,-0.968780517578125,1764234.368738875,0.08235985040664673,0.03429672122001648,0.06703149527311325,1764234.364067875,-145.7839813232422,90.83329772949219,-323.1091003417969,1764234.328900875,-0.5787332765585678,0.07902490995775056,0.2115621976395804,0.1920521706342697,0.1830535680055618,-0.1795173436403275,0.0388147234916687,0.02405925095081329,-0.02696460485458374,2,0.1123240277034636,0.007543883578698417,-0.2795314170008591,0.953513828494152,0.0771825835108757,-0.2099875211715698,-0.9746528267860413,-4.618057250976562,16.31461334228516,-40.12295532226562,-1,2,1764234.337615875,1,2,1676829320.956407,1676828598.712269,1215,0.7487738,0,0,935.7173,0,1,1676829315.85709,1764231.494302,0,1.971176,99.14577,1676829319.880009,0,182416158,0,0,1,1676829319.851255,1,0.55,1
1676829321.064217,21,1676829320.000979,34.05293321500844,-117.8198579764626,217.8642,0,1.380374,13.79266197636514,180,3.222046083982326,4.841792649988535,-9999,1676829321.059593,-4.110565185546875,15.78429412841797,-40.60800170898438,15.96338558197021,4.481159210205078,12.22347545623779,1764234.433476875,0.0646209716796875,-0.312042236328125,-0.9777984619140625,1764234.428496875,0.1193239986896515,0.2179805338382721,0.1634533703327179,1764234.424122875,-145.1621246337891,90.74876403808594,-323.0946044921875,1764234.388657875,-0.5802750149575284,0.08175953919468094,0.2177403322345643,0.1498896032571793,0.000209675170481205,0.03692378103733063,0.07812728732824326,-0.112940326333046,0.01542389392852783,2,0.1156495200430849,0.007869871467325831,-0.2798976665206083,0.9530060351098062,0.07974012941122055,-0.216023862361908,-0.9731265306472778,-4.547271728515625,16.02313995361328,-40.47988891601562,-1,2,1764234.337615875,1,2,1676829320.956407,1676828598.712269,1215,0.7487738,0,0,935.7173,0,1,1676829315.85709,1764231.494302,0,1.971176,99.14577,1676829319.880009,0,182416158,0,0,1,1676829319.851255,1,0.55,1
1676829321.128777,22,1676829320.000979,34.05293321500844,-117.8198579764626,217.8642,0,1.380374,13.79266197636514,180,3.222046083982326,4.841792649988535,-9999,1676829321.119148,-3.420852661132812,16.16046142578125,-40.6226806640625,16.00846099853516,4.52623462677002,12.2166576385498,1764234.493233875,0.105010986328125,-0.2252349853515625,-1.0301513671875,1764234.488253875,-0.1635279506444931,0.02464835532009602,0.07991081476211548,1764234.484181875,-144.3970184326172,91.17230224609375,-323.1723022460938,1764234.448415875,-0.5841167323714209,0.08910904929596902,0.2259467331371383,-0.006191676948219538,0.1733932048082352,0.2188356220722198,-0.01542491465806961,-0.08114659786224365,-0.04818993806838989,2,0.1205945076882926,0.009955378100131598,-0.2809962039702693,0.9520499034474781,0.08672922849655151,-0.2240291386842728,-0.9707157015800476,-3.869705200195312,15.91089630126953,-40.86672973632812,-1,2,1764234.337615875,1,2,1676829320.956407,1676828598.712269,1215,0.7487738,0,0,935.7173,0,1,1676829315.85709,1764231.494302,0,1.971176,99.14577,1676829319.880009,0,182416158,0,0,1,1676829319.851255,1,0.55,1
1676829321.183711,23,1676829320.000979,34.05293321500844,-117.8198579764626,217.8642,0,1.380374,13.79266197636514,180,3.222046083982326,4.841792649988535,-9999,1676829321.158966,-3.35614013671875,16.09774017333984,-40.76205444335938,16.27985191345215,4.797625541687012,12.21203899383545,1764234.552991875,0.0546722412109375,-0.1897735595703125,-0.958953857421875,1764234.548011875,0.02222061716020107,0.2077782303094864,0.0306354071944952,1764234.544241875,-144.0338134765625,90.98191833496094,-323.316650390625,1764234.508173875,-0.5874648428483038,0.09124637869323941,0.2206569765582035,-0.1065254285931587,0.0254080705344677,0.06338559836149216,-0.03030150383710861,0.0002733469009399414,-0.02232390642166138,2,0.1184036071562827,0.01154346063699881,-0.2826605174556888,0.9518142403486691,0.08891051262617111,-0.2188707143068314,-0.9716946482658386,-3.586471557617188,15.93306732177734,-40.56039428710938,-1,2,1764234.337615875,1,2,1676829320.956407,1676828598.712269,1215,0.7487738,0,0,935.7173,0,1,1676829315.85709,1764231.494302,0,1.971176,99.14577,1676829319.880009,0,182416158,0,0,1,1676829319.851255,1,0.55,1
1676829321.248288,24,1676829321.000988,34.05293417877337,-117.819857019114,217.7264,0,1.417128,13.79266244237773,180,3.234168463954936,4.833703691740755,-9999,1676829321.238659,-2.805465698242188,15.95355987548828,-40.52102661132812,17.15885734558105,5.67663049697876,12.20348644256592,1764234.612748875,0.12139892578125,-0.23419189453125,-0.9740753173828125,1764234.607768875,0.4785495400428772,0.3931044042110443,-0.1340685933828354,1764234.604297875,-143.8128204345703,90.93826293945312,-323.1358642578125,1764234.567930875,-0.5962743635264652,0.09939132035843609,0.2219446169500447,0.2127763032913208,0.2770282626152039,-0.02974691614508629,-0.03037232905626297,0.02591313421726227,0.05827301740646362,2,0.120230367358133,0.01470173484398832,-0.2863142534108476,0.9504486823014807,0.09679382294416428,-0.2201269567012787,-0.9706570506095886,-3.140853881835938,16.60604858398438,-40.93606567382812,-1,2,1764234.337615875,1,2,1676829320.956407,1676828598.712269,1215,0.7487738,0,0,935.7173,0,1,1676829315.85709,1764231.494302,0,1.971176,99.14577,1676829319.880009,0,182416158,0,0,1,1676829319.851255,1,0.55,1
1676829321.303262,25,1676829321.000988,34.05293417877337,-117.819857019114,217.7264,0,1.417128,13.79266244237773,180,3.234168463954936,4.833703691740755,-9999,1676829321.298658,-2.19134521484375,16.05398559570312,-41.09454345703125,18.37529754638672,6.893070220947266,12.19764709472656,1764234.672506875,0.1357879638671875,-0.243316650390625,-0.944244384765625,1764234.667526875,-0.4624153077602386,0.006532201543450356,-0.2167538851499557,1764234.664351875,-143.0872039794922,91.08645629882812,-323.708740234375,1764234.627688875,-0.6169496642083906,0.12424301958911,0.2480609517707283,0.09580174088478088,0.2710508704185486,-0.2198329865932465,0.0001546591520309448,0.01592577993869781,-0.03075772523880005,2,0.1363493495493074,0.0212093302902376,-0.2933746395450695,0.9459864954206821,0.1201303601264954,-0.2455247342586517,-0.9619180560112,-2.263351440429688,15.53399658203125,-41.15463256835938,-1,2,1764234.337615875,1,2,1676829320.956407,1676828598.712269,1215,0.7487738,0,0,935.7173,0,1,1676829315.85709,1764231.494302,0,1.971176,99.14577,1676829319.880009,0,182416158,0,0,1,1676829319.851255,1,0.55,1
1676829321.363619,26,1676829321.000988,34.05293417877337,-117.819857019114,217.7264,0,1.417128,13.79266244237773,180,3.234168463954936,4.833703691740755,-9999,1676829321.358494,-1.80419921875,16.12771606445312,-40.90301513671875,19.35146331787109,7.869237899780273,12.19199562072754,1764234.732263875,0.1792449951171875,-0.1263427734375,-0.9191436767578125,1764234.727284875,0.4427260160446167,0.3625973761081696,-0.1600679606199265,1764234.724405875,-142.6216888427734,90.973876953125,-323.4848022460938,1764234.687445875,-0.6377918930512056,0.1320560871092538,0.228728597897613,-0.2077594250440598,0.1172665953636169,-0.1670653373003006,-0.01441270112991333,0.001870691776275635,0.1025604009628296,2,0.1286764288068931,0.02654498191506142,-0.3036418851073636,0.9436839250899718,0.1282432526350021,-0.2267394214868546,-0.9654754996299744,-2.253616333007812,16.20204925537109,-40.84133911132812,-1,2,1764234.337615875,1,2,1676829320.956407,1676828598.712269,1215,0.7487738,0,0,935.7173,0,1,1676829315.85709,1764231.494302,0,1.971176,99.14577,1676829319.880009,0,182416158,0,0,1,1676829319.851255,1,0.55,1
1676829321.422874,27,1676829321.000988,34.05293417877337,-117.819857019114,217.7264,0,1.417128,13.79266244237773,180,3.234168463954936,4.833703691740755,-9999,1676829321.418057,-1.638015747070312,15.34432983398438,-40.73529052734375,21.32403373718262,9.84180736541748,12.18649005889893,1764234.792021875,0.19915771484375,-0.2185211181640625,-0.9043121337890625,1764234.787041875,0.7022793292999268,0.3500448167324066,-0.5546190142631531,1764234.784458875,-142.5621032714844,90.20793151855469,-323.1332702636719,1764234.747203875,-0.6595668038817235,0.1515122243980475,0.2432731076619384,0.5032957196235657,0.3511987030506134,-0.3832855522632599,0.07509918510913849,0.1281487643718719,0.009301722049713135,2,0.1387972074469079,0.03189541387917989,-0.3118350974374169,0.9394024023387892,0.1464889347553253,-0.2408806383609772,-0.9594360589981079,-1.720428466796875,15.75322723388672,-40.73440551757812,-1,2,1764234.337615875,1,2,1676829320.956407,1676828598.712269,1215,0.7487738,0,0,935.7173,0,1,1676829315.85709,1764231.494302,0,1.971176,99.14577,1676829319.880009,0,182416158,0,0,1,1676829319.851255,1,0.55,1
1676829321.488261,28,1676829321.000988,34.05293417877337,-117.819857019114,217.7264,0,1.417128,13.79266244237773,180,3.234168463954936,4.833703691740755,-9999,1676829321.477761,-1.337417602539062,14.50739288330078,-41.75582885742188,22.96555709838867,11.48333072662354,12.18112564086914,1764234.851778875,0.2580413818359375,-0.2729644775390625,-0.9470977783203125,1764234.846799875,0.2868157923221588,0.2520612776279449,-0.2306515872478485,1764234.844516875,-142.2079620361328,89.45060729980469,-324.3634033203125,1764234.806960875,-0.7055923624686833,0.1814009530560207,0.2753255380978546,0.6893453001976013,0.3227555751800537,-0.3950650691986084,0.01371915638446808,0.0144597589969635,0.04414182901382446,2,0.1592472498304293,0.03697280675977984,-0.3291833572046159,0.9300063086002092,0.1736129820346832,-0.2718602418899536,-0.9465466737747192,-1.802108764648438,15.10143280029297,-41.0963134765625,-1,2,1764234.337615875,1,2,1676829320.956407,1676828598.712269,1215,0.7487738,0,0,935.7173,0,1,1676829315.85709,1764231.494302,0,1.971176,99.14577,1676829319.880009,0,182416158,0,0,1,1676829319.851255,1,0.55,1
1676829321.542261,29,1676829321.000988,34.05293417877337,-117.819857019114,217.7264,0,1.417128,13.79266244237773,180,3.234168463954936,4.833703691740755,-9999,1676829321.537672,-1.489898681640625,14.43598937988281,-41.52667236328125,24.24141693115234,12.75918960571289,12.17593288421631,1764234.911536875,0.24664306640625,-0.29888916015625,-0.9588165283203125,1764234.906556875,-0.4437942206859589,-0.1575691252946854,-0.1626440435647964,1764234.904569875,-142.3837432861328,89.441162109375,-323.9594116210938,1764234.866718875,-0.7339566432947257,0.2022556014505011,0.2952424054793299,0.02166914567351341,0.07804139703512192,-0.2856450378894806,0.08390477299690247,0.01594740152359009,-0.02643924951553345,2,0.1724191544880848,0.0407043669486823,-0.3392206839072298,0.9238744471166315,0.1921877413988113,-0.2909717857837677,-0.9372295737266541,-1.293792724609375,14.09951782226562,-41.84115600585938,-1,2,1764234.337615875,1,2,1676829320.956407,1676828598.712269,1215,0.7487738,0,0,935.7173,0,1,1676829315.85709,1764231.494302,0,1.971176,99.14577,1676829319.880009,0,182416158,0,0,1,1676829319.851255,1,0.55,1
1676829321.6082,30,1676829321.000988,34.05293417877337,-117.819857019114,217.7264,0,1.417128,13.79266244237773,180,3.234168463954936,4.833703691740755,-9999,1676829321.597293,-1.492080688476562,15.80838775634766,-40.98922729492188,24.59500312805176,13.11277675628662,12.17092609405518,1764234.971294875,0.285675048828125,-0.238616943359375,-0.861663818359375,1764234.966314875,-0.3469909727573395,0.2032700330018997,-0.03229322656989098,1764234.964624875,-142.457275390625,90.79008483886719,-323.4765930175781,1764234.926475875,-0.7500067222072802,0.1980788036446284,0.2740105687497948,-0.5227711200714111,-0.1095959395170212,-0.05721180886030197,0.04316030442714691,-0.03047654032707214,0.01477694511413574,2,0.1623401602004764,0.04136434288973682,-0.3484994448634752,0.9222162012311717,0.1894446462392807,-0.2705945372581482,-0.9438693523406982,-1.7486572265625,14.81260681152344,-41.70452880859375,-1,2,1764234.337615875,1,2,1676829320.956407,1676828598.712269,1215,0.7487738,0,0,935.7173,0,1,1676829315.85709,1764231.494302,0,1.971176,99.14577,1676829319.880009,0,182416158,0,0,1,1676829319.851255,1,0.55,1
1676829321.66183,31,1676829321.000988,34.05293417877337,-117.819857019114,217.7264,0,1.417128,13.79266244237773,180,3.234168463954936,4.833703691740755,-9999,1676829321.657156,-1.15106201171875,15.91555023193359,-40.84774780273438,25.04243469238281,13.56020736694336,12.16601943969727,1764235.031051875,0.27740478515625,-0.329620361328125,-0.8513946533203125,1764235.026071875,-0.03092356026172638,0.2332846522331238,0.05167784169316292,1764235.024676875,-142.2457580566406,90.84666442871094,-323.3135986328125,1764234.986233875,-0.7533504801934883,0.2041940051857455,0.2499933579368031,-0.2053460627794266,0.3214585483074188,-0.1204620078206062,0.1189552247524261,0.01119151711463928,0.1046531796455383,2,0.1525240940797513,0.04841578603034435,-0.3512448996624335,0.9225071002126342,0.1964744329452515,-0.2473975270986557,-0.9487846493721008,-1.66748046875,15.47240447998047,-41.08242797851562,-1,2,1764234.337615875,1,2,1676829320.956407,1676828598.712269,1215,0.7487738,0,0,935.7173,0,1,1676829315.85709,1764231.494302,0,1.971176,99.14577,1676829319.880009,0,182416158,0,0,1,1676829319.851255,1,0.55,1
1676829321.731361,32,1676829321.000988,34.05293417877337,-117.819857019114,217.7264,0,1.417128,13.79266244237773,180,3.234168463954936,4.833703691740755,-9999,1676829321.716778,-0.653778076171875,16.54891967773438,-40.47402954101562,24.69694519042969,13.21471977233887,12.16118240356445,1764235.090809875,0.179046630859375,-0.250701904296875,-0.8840484619140625,1764235.085829875,-0.4146544337272644,0.1340094655752182,0.1786392480134964,1764235.084728875,-141.6559448242188,91.5706787109375,-323.0861206054688,1764235.045990875,-0.7588931785816776,0.2202828073701247,0.2450948535718357,-0.1565691828727722,0.2045900672674179,0.1820384562015533,0.02943386137485504,-0.0741545706987381,0.09617781639099121,2,0.1532671937331479,0.05633012165693593,-0.3529201530320163,0.9212944013654009,0.2119754105806351,-0.2426483482122421,-0.9466721415519714,-0.9122161865234375,16.01337432861328,-40.78472900390625,-1,2,1764234.337615875,1,2,1676829320.956407,1676828598.712269,1215,0.7487738,0,0,935.7173,0,1,1676829315.85709,1764232.494881,0,1.952682,99.14599,1676829319.880009,0,182416158,0,0,1,1676829319.851255,1,0.55,1
1676829321.781387,33,1676829321.000988,34.05293417877337,-117.819857019114,217.7264,0,1.417128,13.79266244237773,180,3.234168463954936,4.833703691740755,-9999,1676829321.776713,0.2746429443359375,17.5621337890625,-40.15475463867188,24.09416198730469,12.61193466186523,12.15636920928955,1764235.150566875,0.1620330810546875,-0.2413787841796875,-0.9334869384765625,1764235.145586875,-0.3947497010231018,0.3658320307731628,0.1497775167226791,1764235.144784875,-140.6138305664062,92.64109802246094,-322.7574462890625,1764235.105748875,-0.7490889498381037,0.2257958897052477,0.2272788996759772,-0.4873309135437012,0.1166247129440308,0.2253715246915817,-0.08107015490531921,-0.03234787285327911,0.05825579166412354,2,0.1458120198362693,0.06295058087063041,-0.3492855916567364,0.9234585081425883,0.2181245684623718,-0.2253272384405136,-0.9495521783828735,-0.439239501953125,16.74996185302734,-39.83779907226562,-1,2,1764234.337615875,1,2,1676829320.956407,1676828598.712269,1215,0.7487738,0,0,935.7173,0,1,1676829315.85709,1764232.494881,0,1.952682,99.14599,1676829319.880009,0,182416158,0,0,1,1676829319.851255,1,0.55,1
1676829321.842841,34,1676829321.000988,34.05293417877337,-117.819857019114,217.7264,0,1.417128,13.79266244237773,180,3.234168463954936,4.833703691740755,-9999,1676829321.836215,0.8403778076171875,18.28962707519531,-39.68984985351562,24.04850769042969,12.56628131866455,12.15162086486816,1764235.210324875,0.2571868896484375,-0.2874603271484375,-0.9580078125,1764235.205344875,-0.1186757832765579,0.2130347788333893,-0.07081691175699234,1764235.204837875,-140.1470031738281,93.28045654296875,-322.19482421875,1764235.165506875,-0.738790840142076,0.238309750331838,0.2048759405056689,-0.2447592467069626,0.3591386675834656,0.0889873132109642,-0.03994621336460114,-0.05604521930217743,-0.004562735557556152,2,0.1373792926124582,0.07361454322077056,-0.3452764812890783,0.9254685790061563,0.2311235666275024,-0.203445702791214,-0.9514156579971313,0.359405517578125,17.49345397949219,-39.86126708984375,-1,2,1764234.337615875,1,2,1676829320.956407,1676828598.712269,1215,0.7487738,0,0,935.7173,0,1,1676829315.85709,1764232.494881,0,1.952682,99.14599,1676829319.880009,0,182416158,0,0,1,1676829319.851255,1,0.55,1
1676829321.900923,35,1676829321.000988,34.05293417877337,-117.819857019114,217.7264,0,1.417128,13.79266244237773,180,3.234168463954936,4.833703691740755,-9999,1676829321.896124,1.337738037109375,18.76890563964844,-39.27572631835938,24.5712776184082,13.08905124664307,12.14703178405762,1764235.270085875,0.3017578125,-0.314239501953125,-0.846466064453125,1764235.265105875,-0.4961783289909363,0.1355719417333603,-0.1216188445687294,1764235.264888875,-139.5736541748047,93.76589965820312,-321.8955078125,1764235.225263875,-0.7433323289011183,0.2532181735108228,0.1956259121824321,-0.2229434698820114,0.1922019720077515,-0.1308398395776749,0.004776373505592346,-0.1040965765714645,0.02062952518463135,2,0.1358995696164771,0.0819053322446025,-0.3470501381674885,0.9243261811202133,0.2457424104213715,-0.1943805515766144,-0.9496456384658813,0.8380279541015625,18.47032928466797,-39.40359497070312,-1,2,1764234.337615875,1,2,1676829320.956407,1676828598.712269,1215,0.7487738,0,0,935.7173,0,1,1676829315.85709,1764232.494881,0,1.952682,99.14599,1676829319.880009,0,182416158,0,0,1,1676829319.851255,1,0.55,1
1676829321.961167,36,1676829321.000988,34.05293417877337,-117.819857019114,217.7264,0,1.417128,13.79266244237773,180,3.234168463954936,4.833703691740755,-9999,1676829321.955767,2.913055419921875,19.84378051757812,-38.52981567382812,24.78593063354492,13.30370330810547,12.14211368560791,1764235.329843875,0.4574737548828125,-0.221832275390625,-0.2947845458984375,1764235.324863875,0.3667953014373779,1.870261907577515,-0.09940674901008606,1764235.324940875,-137.9190826416016,94.80787658691406,-321.0272827148438,1764235.285025875,-0.7492529705460574,0.2642987118611609,0.1699645470661481,-0.4671128392219543,0.4013868868350983,-0.1124516949057579,0.05164429545402527,-0.1196708977222443,0.1910215616226196,2,0.1263464857500585,0.09139496845624386,-0.3510168562261576,0.9232934129860602,0.2574682235717773,-0.169147402048111,-0.9513670802116394,1.44036865234375,19.32071685791016,-39.21109008789062,-1,2,1764234.337615875,1,2,1676829320.956407,1676828598.712269,1215,0.7487738,0,0,935.7173,0,1,1676829315.85709,1764232.494881,0,1.952682,99.14599,1676829319.880009,0,182416158,0,0,1,1676829319.851255,1,0.55,1
1676829322.020551,37,1676829321.000988,34.05293417877337,-117.819857019114,217.7264,0,1.417128,13.79266244237773,180,3.234168463954936,4.833703691740755,-9999,1676829322.015515,8.56475830078125,17.80826568603516,-36.98794555664062,26.35289573669434,14.8706693649292,12.13586044311523,1764235.389600875,0.74920654296875,-0.2258148193359375,-0.0866851806640625,1764235.384621875,2.821691751480103,3.904588460922241,-0.2694288194179535,1764235.384995875,-131.9233551025391,92.55216979980469,-319.2086181640625,1764235.344782875,-0.7642707213953558,0.3515694391513735,0.1753584828808325,1.270437479019165,2.612625122070312,-0.4116032719612122,0.2792872786521912,-0.04555529356002808,0.7078217267990112,2,0.1449616988915664,0.1294926867591593,-0.3515365082824268,0.9157727521759683,0.3390904068946838,-0.1744611412286758,-0.9244354963302612,4.27880859375,19.75237274169922,-38.1929931640625,-1,2,1764234.337615875,1,2,1676829320.956407,1676828598.712269,1215,0.7487738,0,0,935.7173,0,1,1676829315.85709,1764232.494881,0,1.952682,99.14599,1676829319.880009,0,182416158,0,0,1,1676829319.851255,1,0.55,1
1676829322.081313,38,1676829321.000988,34.05293417877337,-117.819857019114,217.7264,0,1.417128,13.79266244237773,180,3.234168463954936,4.833703691740755,-9999,1676829322.075256,17.92298889160156,11.97154235839844,-34.19454956054688,29.34430694580078,17.86208152770996,12.13725185394287,1764235.449358875,0.897857666015625,0.0120697021484375,-0.2023162841796875,1764235.444378875,3.668613195419312,5.132230758666992,-1.297743797302246,1764235.445049875,-122.555908203125,86.54621887207031,-316.3634033203125,1764235.404540875,-0.8551629697163794,0.5865150376395369,0.2962183755197766,3.433715581893921,4.856937408447266,-0.3413558304309845,0.2680519223213196,0.1405382752418518,0.8135072588920593,2,0.247107585683635,0.2015876693655009,-0.353804293986217,0.8792739875227398,0.5293570160865784,-0.2919053733348846,-0.7966005206108093,11.52511596679688,15.62467956542969,-36.88092041015625,-1,2,1764234.337615875,1,2,1676829320.956407,1676828598.712269,1215,0.7487738,0,0,935.7173,0,1,1676829315.85709,1764232.494881,0,1.952682,99.14599,1676829319.880009,0,182416158,0,0,1,1676829319.851255,1,0.55,1
1676829322.14002,39,1676829321.000988,34.05293417877337,-117.819857019114,217.7264,0,1.417128,13.79266244237773,180,3.234168463954936,4.833703691740755,-9999,1676829322.135036,23.63931274414062,12.63707733154297,-27.269775390625,38.16695022583008,26.68472480773926,12.13964557647705,1764235.509115875,1.056396484375,0.3545074462890625,-0.500732421875,1764235.504136875,0.917907178401947,3.732762813568115,-3.673454761505127,1764235.505105875,-117.1251525878906,87.98851013183594,-309.30810546875,1764235.464297875,-1.060688991655202,0.965109018301081,0.4044585156534392,3.006069183349609,4.711957454681396,-1.994424939155579,0.1336095333099365,0.4938781559467316,0.2366635203361511,2,0.3834224235541506,0.3021448861490919,-0.3585382953051683,0.7957046985463019,0.7557794451713562,-0.3935210108757019,-0.5233914256095886,20.81468963623047,10.84172058105469,-31.53399658203125,-1,2,1764234.337615875,1,2,1676829320.956407,1676828598.712269,1215,0.7487738,0,0,935.7173,0,1,1676829315.85709,1764232.494881,0,1.952682,99.14599,1676829319.880009,0,182416158,0,0,1,1676829319.851255,1,0.55,1
1676829322.20024,40,1676829322.000997,34.05293550476954,-117.8198548971567,217.8025,0,1.45021,13.79266345025571,180,3.221381742548005,4.842234680554755,-9999,1676829322.194959,22.14453887939453,21.73040008544922,-20.33154296875,51.55947494506836,40.07724761962891,12.14208507537842,1764235.568873875,1.534317016601562,0.3649139404296875,-0.56463623046875,1764235.563893875,0.0004721784498542547,3.89567756652832,-5.444376945495605,1764235.565161875,-119.1853637695312,97.37030029296875,-302.3146057128906,1764235.524055875,-1.229183110654184,1.267504949421675,0.2697646748820048,-0.06652294844388962,3.852698564529419,-4.38831615447998,0.2348964214324951,0.6436256170272827,-0.2326006591320038,2,0.4268914840926559,0.4169327801250328,-0.3953705755757492,0.6982928431818554,0.9198430180549622,-0.2665046155452728,-0.2878614366054535,23.80818939208984,15.1165771484375,-25.21466064453125,-1,2,1764234.337615875,1,2,1676829320.956407,1676828598.712269,1215,0.7487738,0,0,935.7173,0,1,1676829315.85709,1764232.494881,0,1.952682,99.14599,1676829319.880009,0,182416158,0,0,1,1676829319.851255,1,0.55,1
1676829322.259518,41,1676829322.000997,34.05293550476954,-117.8198548971567,217.8025,0,1.45021,13.79266345025571,180,3.221381742548005,4.842234680554755,-9999,1676829322.254551,14.79737091064453,30.36339569091797,-16.7161865234375,73.43917846679688,61.95695495605469,12.14424514770508,1764235.628630875,1.635635375976562,0.324432373046875,-0.445770263671875,1764235.623651875,1.877141356468201,1.997724175453186,-4.566403865814209,1764235.625220875,-126.7631225585938,105.7034759521484,-299.33349609375,1764235.583812875,-1.278596322536432,1.502983771139861,-0.03437789117041537,0.3421448469161987,3.393004894256592,-5.884099006652832,0.7014962434768677,0.3378518223762512,-0.6304301023483276,2,0.3971997170455245,0.5553126187384197,-0.4452950092978878,0.5792863585421619,0.9971121549606323,0.03437111899256706,-0.06772056221961975,20.12344360351562,25.19874572753906,-18.31314086914062,-1,2,1764234.337615875,1,2,1676829320.956407,1676828598.712269,1215,0.7487738,0,0,935.7173,0,1,1676829315.85709,1764232.494881,0,1.952682,99.14599,1676829319.880009,0,182416158,0,0,1,1676829319.851255,1,0.55,1
1676829322.319878,42,1676829322.000997,34.05293550476954,-117.8198548971567,217.8025,0,1.45021,13.79266345025571,180,3.221381742548005,4.842234680554755,-9999,1676829322.314448,8.382675170898438,31.48251342773438,-21.85052490234375,98.26815032958984,86.78592681884766,12.14452743530273,1764235.688388875,1.746536254882812,0.169403076171875,-0.2995147705078125,1764235.683408875,3.749063968658447,0.2694948613643646,-3.05189037322998,1764235.685281875,-132.9603881835938,106.2688293457031,-304.9804077148438,1764235.643570875,-1.36983139513815,1.619122195878123,-0.3341311803673878,3.036845207214355,1.390164136886597,-3.92862868309021,0.8545792698860168,-0.01853075623512268,-0.392086386680603,2,0.3627823087283459,0.6254652132894187,-0.5235468586906108,0.4506451441201729,0.9435927867889404,0.3279485106468201,0.04563547298312187,12.27009582519531,31.11582946777344,-17.59881591796875,-1,2,1764234.337615875,1,2,1676829320.956407,1676828598.712269,1215,0.7487738,0,0,935.7173,0,1,1676829315.85709,1764232.494881,0,1.952682,99.14599,1676829319.880009,0,182416158,0,0,1,1676829319.851255,1,0.55,1
1676829322.378936,43,1676829322.000997,34.05293550476954,-117.8198548971567,217.8025,0,1.45021,13.79266345025571,180,3.221381742548005,4.842234680554755,-9999,1676829322.374294,4.990631103515625,28.66258239746094,-28.75408935546875,114.4705810546875,102.9883575439453,12.14660453796387,1764235.748146875,1.572097778320312,-0.0166015625,-0.1705169677734375,1764235.743166875,3.202381134033203,-0.8503992557525635,-0.5879908204078674,1764235.745337875,-136.1346740722656,103.4276885986328,-311.6318664550781,1764235.703327875,-1.605364354701867,1.548720573144702,-0.5358406898859469,3.912092685699463,-0.1728789806365967,-2.224517583847046,0.8654827475547791,-0.4098866581916809,-0.2141437530517578,2,0.3534966250354781,0.6046073962160694,-0.6244186541796939,0.3458197019112505,0.8596300482749939,0.5105640888214111,-0.01898006536066532,6.642547607421875,31.05953979492188,-24.14248657226562,-1,2,1764234.337615875,1,2,1676829320.956407,1676828598.712269,1215,0.7487738,0,0,935.7173,0,1,1676829315.85709,1764232.494881,0,1.952682,99.14599,1676829319.880009,0,182416158,0,0,1,1676829319.851255,1,0.55,1
1676829322.439864,44,1676829322.000997,34.05293550476954,-117.8198548971567,217.8025,0,1.45021,13.79266345025571,180,3.221381742548005,4.842234680554755,-9999,1676829322.434179,3.149658203125,25.21492004394531,-32.72442626953125,116.9768371582031,105.4946136474609,12.14863872528076,1764235.807903875,1.27972412109375,0.1087646484375,-0.071533203125,1764235.802923875,0.6695240139961243,-1.23555064201355,0.5843393206596375,1764235.805397875,-137.9564971923828,100.0024566650391,-315.4216918945312,1764235.763085875,-1.853306178665805,1.377835956539179,-0.575312522532595,2.270553350448608,-1.044060230255127,-0.06923415511846542,0.6457874774932861,-0.5214530229568481,0.009817898273468018,2,0.3559170901625218,0.5411796373387695,-0.7001920063429741,0.3002978606590438,0.8234508037567139,0.5440970063209534,-0.1608952432870865,4.504837036132812,26.94126129150391,-30.70730590820312,-1,2,1764234.337615875,1,2,1676829320.956407,1676828598.712269,1215,0.7487738,0,0,935.7173,0,1,1676829315.85709,1764232.494881,0,1.952682,99.14599,1676829319.880009,0,182416158,0,0,1,1676829319.851255,1,0.55,1
1676829322.498459,45,1676829322.000997,34.05293550476954,-117.8198548971567,217.8025,0,1.45021,13.79266345025571,180,3.221381742548005,4.842234680554755,-9999,1676829322.493735,3.413604736328125,24.46272277832031,-33.79116821289062,113.7027435302734,102.2205200195312,12.15065288543701,1764235.867661875,0.99072265625,0.20953369140625,0.07574462890625,1764235.862681875,0.103605754673481,-0.519430935382843,0.9708135724067688,1764235.865464875,-137.4289093017578,99.38420104980469,-316.248291015625,1764235.822842875,-1.920081298760298,1.271821163793339,-0.5368916896126067,0.3835959732532501,-1.028253793716431,0.7268797755241394,0.3865959644317627,-0.3553242683410645,0.2219108045101166,2,0.3467389422788473,0.5032118543852497,-0.7258167819560347,0.315816459331993,0.8211830854415894,0.5114675164222717,-0.2530998587608337,3.153717041015625,24.86508941650391,-33.11727905273438,-1,2,1764234.337615875,1,2,1676829320.956407,1676828598.712269,1215,0.7487738,0,0,935.7173,0,1,1676829315.85709,1764232.494881,0,1.952682,99.14599,1676829319.880009,0,182416158,0,0,1,1676829319.851255,1,0.55,1
1676829322.559995,46,1676829322.000997,34.05293550476954,-117.8198548971567,217.8025,0,1.45021,13.79266345025571,180,3.221381742548005,4.842234680554755,-9999,1676829322.553317,4.774917602539062,24.56892395019531,-34.1937255859375,108.6521530151367,97.16992950439453,12.15263938903809,1764235.927418875,1.059967041015625,-0.168060302734375,-0.0302581787109375,1764235.922438875,-0.2258685529232025,0.7736623883247375,1.714138031005859,1764235.925527875,-135.9216918945312,99.56227111816406,-316.705810546875,1764235.882600875,-1.909425470109005,1.236303232238412,-0.4837751400424748,-0.3091669082641602,-0.4917855858802795,0.8994255065917969,0.07710200548171997,-0.2006590962409973,0.3530259132385254,2,0.3464116311533802,0.484448360366209,-0.7259722751314752,0.3439084144593105,0.8361822366714478,0.4651243984699249,-0.2906175255775452,3.58154296875,24.21846008300781,-33.70077514648438,-1,2,1764234.337615875,1,2,1676829320.956407,1676828598.712269,1215,0.7487738,0,0,935.7173,0,1,1676829315.85709,1764232.494881,0,1.952682,99.14599,1676829319.880009,0,182416158,0,0,1,1676829319.851255,1,0.55,1
1676829322.619555,47,1676829322.000997,34.05293550476954,-117.8198548971567,217.8025,0,1.45021,13.79266345025571,180,3.221381742548005,4.842234680554755,-9999,1676829322.613339,6.378173828125,24.17630004882812,-33.67156982421875,100.2277450561523,88.74552154541016,12.15458583831787,1764235.987176875,0.778289794921875,-0.010772705078125,-0.2709503173828125,1764235.982196875,-0.3788796663284302,-0.5352357029914856,2.003460884094238,1764235.985589875,-134.0086669921875,99.14642333984375,-316.3199462890625,1764235.942357875,-1.848140715542093,1.260561194629064,-0.4098538299354363,-0.4561586081981659,-0.6502329707145691,2.135353088378906,-0.07770979404449463,-0.1972118616104126,0.1567992568016052,2,0.3614511257119222,0.4789088621207069,-0.7035026945052816,0.3808980829561349,0.8733946084976196,0.3984752595424652,-0.279998779296875,5.912445068359375,24.52635192871094,-33.97967529296875,-1,2,1764234.337615875,1,2,1676829320.956407,1676828598.712269,1215,0.7487738,0,0,935.7173,0,1,1676829315.85709,1764232.494881,0,1.952682,99.14599,1676829319.880009,0,182416158,0,0,1,1676829319.851255,1,0.55,1
1676829322.679742,48,1676829322.000997,34.05293550476954,-117.8198548971567,217.8025,0,1.45021,13.79266345025571,180,3.221381742548005,4.842234680554755,-9999,1676829322.67292,7.742767333984375,22.92219543457031,-34.09991455078125,93.37574768066406,81.89352416992188,12.15631008148193,1764236.046933875,0.34710693359375,0.7553253173828125,0.0090789794921875,1764236.041953875,-0.2666069269180298,0.5467216968536377,0.6403879523277283,1764236.045652875,-132.3805389404297,98.28326416015625,-317.0903625488281,1764236.002115875,-1.7790608889896,1.240723536813076,-0.3016180313625534,-0.0827091857790947,-1.080100178718567,2.121686458587646,-0.3864365220069885,-0.1664045751094818,-0.02512949705123901,2,0.3694512387739753,0.456908651388086,-0.6798676293537975,0.4387713258566645,0.9033126831054688,0.2970655858516693,-0.3094805181026459,6.654052734375,23.86277008056641,-33.89877319335938,-1,2,1764234.337615875,1,2,1676829320.956407,1676828598.712269,1215,0.7487738,0,0,935.7173,0,1,1676829315.85709,1764232.494881,0,1.952682,99.14599,1676829319.880009,0,182416158,0,0,1,1676829319.851255,1,0.55,1
1676829322.737495,49,1676829322.000997,34.05293550476954,-117.8198548971567,217.8025,0,1.45021,13.79266345025571,180,3.221381742548005,4.842234680554755,-9999,1676829322.732584,9.833740234375,23.92753601074219,-33.1649169921875,93.81370544433594,82.33148193359375,12.15613079071045,1764236.106691875,1.118408203125,0.4470367431640625,-0.1914825439453125,1764236.101711875,-1.068703055381775,2.146975755691528,-1.436057686805725,1764236.105711875,-131.2156219482422,99.44110107421875,-314.806884765625,1764236.061873875,-1.745282236543027,1.241767169429613,-0.2436126427534739,-0.06995897740125656,0.8621295690536499,0.0280749499797821,-0.4245015978813171,0.5494697690010071,0.3173065483570099,2,0.3788115649696249,0.4468893225502752,-0.6638823266988761,0.4648137943601114,0.9184132218360901,0.2412101626396179,-0.3135834634304047,8.47711181640625,23.39912414550781,-34.23098754882812,-1,2,1764234.337615875,1,2,1676829320.956407,1676828598.712269,1215,0.7487738,0,0,935.7173,0,1,1676829315.85709,1764233.495462,0,1.939468,99.14615,1676829319.880009,0,182416158,0,0,1,1676829319.851255,1,0.55,1
1676829322.799493,50,1676829322.000997,34.05293550476954,-117.8198548971567,217.8025,0,1.45021,13.79266345025571,180,3.221381742548005,4.842234680554755,-9999,1676829322.792691,8.053482055664062,27.64726257324219,-30.7298583984375,98.45669555664062,86.97447204589844,12.15629100799561,1764236.166448875,1.219039916992188,-0.1392822265625,-0.2563629150390625,1764236.161468875,-1.058172464370728,-0.5929102301597595,-1.902897596359253,1764236.165770875,-133.6480102539062,103.6267852783203,-313.2974243164062,1764236.121630875,-1.718120602148893,1.33930526982915,-0.3070284472809758,-0.9456348419189453,1.118651628494263,-2.05239462852478,0.3644276261329651,-0.2799190580844879,-0.02922485768795013,2,0.3861897333665119,0.4914341173278897,-0.6487072881623525,0.4341990138550104,0.9278085827827454,0.3022273778915405,-0.2186999917030334,10.06045532226562,25.01808166503906,-32.05450439453125,-1,2,1764234.337615875,1,2,1676829320.956407,1676828598.712269,1215,0.7487738,0,0,935.7173,0,1,1676829315.85709,1764233.495462,0,1.939468,99.14615,1676829319.880009,0,182416158,0,0,1,1676829319.851255,1,0.55,1
1676829322.857074,51,1676829322.000997,34.05293550476954,-117.8198548971567,217.8025,0,1.45021,13.79266345025571,180,3.221381742548005,4.842234680554755,-9999,1676829322.852121,2.985458374023438,33.05626678466797,-27.04336547851562,101.3343734741211,89.85214996337891,12.15769577026367,1764236.226206875,1.525070190429688,0.284332275390625,0.1025238037109375,1764236.221226875,-3.206289291381836,0.1933391094207764,-4.136727809906006,1764236.225829875,-140.2372131347656,109.6792297363281,-307.8992919921875,1764236.181388875,-1.679274705632445,1.335035784851145,-0.4402076940187047,-1.923988342285156,-0.5083227753639221,-2.113417625427246,0.412492036819458,-0.4870252013206482,-0.001424551010131836,2,0.3352005568421862,0.531021490333442,-0.6607666773475571,0.4111497408380566,0.8796374201774597,0.4261273741722107,-0.2113135308027267,6.90277099609375,29.04338836669922,-30.72772216796875,-1,2,1764234.337615875,1,2,1676829320.956407,1676828598.712269,1215,0.7487738,0,0,935.7173,0,1,1676829315.85709,1764233.495462,0,1.939468,99.14615,1676829319.880009,0,182416158,0,0,1,1676829319.851255,1,0.55,1
1676829322.919903,52,1676829322.000997,34.05293550476954,-117.8198548971567,217.8025,0,1.45021,13.79266345025571,180,3.221381742548005,4.842234680554755,-9999,1676829322.912123,-8.000778198242188,38.56727600097656,-20.75045776367188,115.949462890625,104.4672393798828,12.1598424911499,1764236.285963167,1.000320434570312,0.4671478271484375,0.2637176513671875,1764236.280983167,-1.574150800704956,1.141503214836121,-6.164841651916504,1764236.285884167,-152.1515808105469,114.4625244140625,-302.4513244628906,1764236.241145875,-1.528290732800291,1.41551913111223,-0.6835491783060516,-3.018080949783325,0.8240652084350586,-5.180500507354736,0.6986070275306702,-0.3722867965698242,0.2807973623275757,2,0.2399634702172422,0.6184360416523378,-0.6526441875502957,0.3660735812154188,0.7660077214241028,0.6315488219261169,-0.1199087873101234,-0.125946044921875,35.46553802490234,-24.8040771484375,-1,2,1764234.337615875,1,2,1676829320.956407,1676828598.712269,1215,0.7487738,0,0,935.7173,0,1,1676829315.85709,1764233.495462,0,1.939468,99.14615,1676829319.880009,0,182416158,0,0,1,1676829319.851255,1,0.55,1
