loggingTime,loggingSample,locationTimestamp_since1970,locationLatitude,locationLongitude,locationAltitude,locationSpeed,locationSpeedAccuracy,locationCourse,locationCourseAccuracy,locationVerticalAccuracy,locationHorizontalAccuracy,locationFloor,locationHeadingTimestamp_since1970,locationHeadingX,locationHeadingY,locationHeadingZ,locationTrueHeading,locationMagneticHeading,locationHeadingAccuracy,accelerometerTimestamp_sinceReboot,accelerometerAccelerationX,accelerometerAccelerationY,accelerometerAccelerationZ,gyroTimestamp_sinceReboot,gyroRotationX,gyroRotationY,gyroRotationZ,magnetometerTimestamp_sinceReboot,magnetometerX,magnetometerY,magnetometerZ,motionTimestamp_sinceReboot,motionYaw,motionRoll,motionPitch,motionRotationRateX,motionRotationRateY,motionRotationRateZ,motionUserAccelerationX,motionUserAccelerationY,motionUserAccelerationZ,motionAttitudeReferenceFrame,motionQuaternionX,motionQuaternionY,motionQuaternionZ,motionQuaternionW,motionGravityX,motionGravityY,motionGravityZ,motionMagneticFieldX,motionMagneticFieldY,motionMagneticFieldZ,motionHeading,motionMagneticFieldCalibrationAccuracy,activityTimestamp_sinceReboot,activity,activityActivityConfidence,activityActivityStartDate,pedometerStartDate,pedometerNumberofSteps,pedometerAverageActivePace,pedometerCurrentPace,pedometerCurrentCadence,pedometerDistance,pedometerFloorAscended,pedometerFloorDescended,pedometerEndDate,altimeterTimestamp_sinceReboot,altimeterReset,altimeterRelativeAltitude,altimeterPressure,IP_Timestamp_since1970,IP_en0,IP_pdp_ip0,deviceID,deviceOrientationTimeStamp_since1970,deviceOrientation,batteryTimeStamp_since1970,batteryState,batteryLevel,label
1676669915.747653,1,1676669914.982703,34.21408530340011,-118.3864399136202,246.0308,0,1.474457,351.1045339269389,180,1.545136572282357,6.239553242642228,-9999,1676669915.733724,25.84992218017578,-1.964385986328125,-33.6090087890625,292.5835266113281,280.9447326660156,12.23799610137939,1677634.177933375,0.12103271484375,-0.21307373046875,-1.05120849609375,1677634.153036375,-0.06676971167325974,-0.02638500183820724,0.2399697154760361,1677634.158680375,-111.4525604248047,87.19265747070312,-322.2970886230469,1677634.141833375,1.115683153980977,0.06230508470050004,0.1987738686989648,0.04547355324029922,0.1835569590330124,0.1798803061246872,0.03127695620059967,-0.04185131192207336,-0.08204799890518188,2,0.06773349047877143,0.07879417607697656,0.5291104262524697,0.8421672237872707,0.06103875115513802,-0.1974674910306931,-0.9784073233604431,25.60874938964844,-2.265548706054688,-34.05191040039062,-1,2,1677634.111956375,4,2,1676669915.666442,1676669834.051682,104,1.104312,1.157197,1.679942,60.36,0,0,1676669908.974066,1677631.508012,0,-0.2061005,98.58089,0,0,0,0,0,1,1676669915.725558,1,0.39,1
1676669915.798145,2,1676669914.982703,34.21408530340011,-118.3864399136202,246.0308,0,1.474457,351.1045339269389,180,1.545136572282357,6.239553242642228,-9999,1676669915.793681,24.92765045166016,-1.415367126464844,-34.17767333984375,292.5220947265625,280.88330078125,12.23824310302734,1677634.237684,0.0446929931640625,-0.15167236328125,-1.002182006835938,1677634.212787,-0.5466934442520142,-0.2666657865047455,0.03053314238786697,1677634.218729,-112.4189758300781,87.3525390625,-322.0755920410156,1677634.201586375,1.131360394090311,0.04554749791232229,0.1854839787896954,-0.4866902828216553,-0.2939178347587585,0.1178834587335587,0.06793544441461563,0.009022489190101624,-0.009077966213226318,2,0.06600957259203381,0.06876656189848396,0.5353287442966769,0.8392479564012305,0.04475075006484985,-0.1844222396612167,-0.9818277955055237,25.28042602539062,-1.689262390136719,-33.98544311523438,-1,2,1677634.111956375,4,2,1676669915.666442,1676669834.051682,104,1.104312,1.157197,1.679942,60.36,0,0,1676669908.974066,1677631.508012,0,-0.2061005,98.58089,1676669915.75257,167772201,182416158,0,0,1,1676669915.725558,1,0.39,1
1676669915.860289,3,1676669914.982703,34.21408530340011,-118.3864399136202,246.0308,0,1.474457,351.1045339269389,180,1.545136572282357,6.239553242642228,-9999,1676669915.853184,24.26520538330078,-0.09796142578125,-35.20706176757812,292.8741149902344,281.2353210449219,12.23850345611572,1677634.297438,0.0075531005859375,-0.21612548828125,-0.888214111328125,1677634.272541,-0.5859715938568115,-0.2970868051052094,-0.1496062725782394,1677634.27878,-113.3391876220703,89.36569213867188,-323.9443664550781,1677634.261337,1.127522033533983,0.02254462366368597,0.147616994425969,-0.6781322360038757,-0.5158205032348633,-0.2277797609567642,-0.01695693656802177,0.04942525923252106,-0.02432578802108765,2,0.05631909448641311,0.04890445867804436,0.533582822050503,0.8424523345604845,0.02229754813015461,-0.1470814645290375,-0.9888730049133301,24.34810638427734,-0.720306396484375,-34.55758666992188,-1,2,1677634.111956375,4,2,1676669915.666442,1676669834.051682,104,1.104312,1.157197,1.679942,60.36,0,0,1676669908.974066,1677631.508012,0,-0.2061005,98.58089,1676669915.75257,167772201,182416158,0,0,1,1676669915.725558,1,0.39,1
1676669915.917788,4,1676669914.982703,34.21408530340011,-118.3864399136202,246.0308,0,1.474457,351.1045339269389,180,1.545136572282357,6.239553242642228,-9999,1676669915.912851,24.83737182617188,-0.02249908447265625,-34.5284423828125,291.2747192382812,279.6359252929688,12.23875331878662,1677634.357191,0.04144287109375,-0.0972442626953125,-0.961822509765625,1677634.332294,-0.09848929196596146,0.3824296593666077,0.5567535161972046,1677634.338832,-112.4483795166016,89.30198669433594,-323.1498413085938,1677634.321091,1.133875800992643,0.02195546360048934,0.1206069029454169,-0.1887187510728836,0.3421370983123779,0.4577153623104095,0.006358280777931213,-0.05004962533712387,0.1246986985206604,2,0.04495028096853428,0.04160773070830553,0.5366011226074243,0.8416100194002341,0.02179422415792942,-0.1203147247433662,-0.9924965500831604,24.29093170166016,0.1158676147460938,-34.45895385742188,-1,2,1677634.111956375,4,2,1676669915.666442,1676669834.051682,104,1.104312,1.157197,1.679942,60.36,0,0,1676669908.974066,1677631.508012,0,-0.2061005,98.58089,1676669915.75257,167772201,182416158,0,0,1,1676669915.725558,1,0.39,1
1676669915.981485,5,1676669914.982703,34.21408530340011,-118.3864399136202,246.0308,0,1.474457,351.1045339269389,180,1.545136572282357,6.239553242642228,-9999,1676669915.972627,24.65468597412109,-0.287567138671875,-34.22964477539062,290.222900390625,278.5841064453125,12.23899173736572,1677634.416944,0.011199951171875,0.0067291259765625,-1.118698120117188,1677634.392047,-0.07286541908979416,-0.06018051505088806,0.2673099935054779,1677634.398886,-112.4247741699219,88.95259094238281,-322.7733154296875,1677634.380844,1.166472395756163,0.03542010322252792,0.1182277135759378,-0.05662061646580696,0.1031678095459938,0.3976348340511322,0.0005706325173377991,0.03981225192546844,-0.02983564138412476,2,0.03956909404598603,0.0472873159537288,0.5505531271857681,0.8325199397974389,0.03516548871994019,-0.1179524809122086,-0.9923964142799377,25.18765258789062,-0.5020599365234375,-34.19851684570312,-1,2,1677634.111956375,4,2,1676669915.666442,1676669834.051682,104,1.104312,1.157197,1.679942,60.36,0,0,1676669908.974066,1677631.508012,0,-0.2061005,98.58089,1676669915.75257,167772201,182416158,0,0,1,1676669915.725558,1,0.39,1
1676669916.037179,6,1676669914.982703,34.21408530340011,-118.3864399136202,246.0308,0,1.474457,351.1045339269389,180,1.545136572282357,6.239553242642228,-9999,1676669916.03256,24.48210906982422,-0.44189453125,-34.54376220703125,291.3025512695312,279.6637573242188,12.23923587799072,1677634.476698,-0.0233612060546875,-0.154266357421875,-0.9615631103515625,1677634.4518,0.2921240031719208,-0.1455880850553513,-0.3691964149475098,1677634.458941,-113.2102813720703,88.63758850097656,-323.2319946289062,1677634.440597,1.1655684072287,0.02154411834959899,0.1222558614392692,0.2689951062202454,-0.2741867005825043,-0.3379189074039459,-0.04953408986330032,0.07414578646421432,-0.06465530395507812,2,0.04508580254209128,0.04259589151751836,0.5498403646489283,0.8329635297732514,0.02138165943324566,-0.1219515427947044,-0.9923056960105896,24.50965881347656,-0.4876022338867188,-34.91632080078125,-1,2,1677634.111956375,4,2,1676669915.666442,1676669834.051682,104,1.104312,1.157197,1.679942,60.36,0,0,1676669908.974066,1677631.508012,0,-0.2061005,98.58089,1676669915.75257,167772201,182416158,0,0,1,1676669915.725558,1,0.39,1
1676669916.102165,7,1676669914.982703,34.21408530340011,-118.3864399136202,246.0308,0,1.474457,351.1045339269389,180,1.545136572282357,6.239553242642228,-9999,1676669916.092373,24.61082458496094,-0.24652099609375,-34.81747436523438,291.5338134765625,279.89501953125,12.23947334289551,1677634.536451,0.0225677490234375,-0.1432647705078125,-1.04669189453125,1677634.511554,0.0709330290555954,-0.03897190093994141,-0.004095142707228661,1677634.518996,-112.7046813964844,88.87361145019531,-323.337890625,1677634.50035,1.148792149953332,0.02235506958298052,0.1353227093310062,0.1072483211755753,0.02865214273333549,-0.0604591965675354,-0.01648780517280102,-0.03403519093990326,0.005289256572723389,2,0.05069717900990356,0.04609406694255784,0.5426852228393899,0.8371367083571423,0.02214885130524635,-0.1349100768566132,-0.9906102418899536,24.87643432617188,-0.47210693359375,-34.36248779296875,-1,2,1677634.111956375,4,2,1676669915.666442,1676669834.051682,104,1.104312,1.157197,1.679942,60.36,0,0,1676669908.974066,1677631.508012,0,-0.2061005,98.58089,1676669915.75257,167772201,182416158,0,0,1,1676669915.725558,1,0.39,1
1676669916.156696,8,1676669915.982706,34.21408530340011,-118.3864399136202,246.0308,0,1.50409,351.1045339269389,180,1.590047081095913,6.15565179621735,-9999,1676669916.151819,24.22339630126953,-0.7377548217773438,-34.53976440429688,291.4430847167969,279.8042907714844,12.23971271514893,1677634.596204,0.024932861328125,-0.148223876953125,-0.9877471923828125,1677634.571307,0.1805588603019714,-0.05380916967988014,0.02254925109446049,1677634.579047,-112.9197540283203,88.49113464355469,-323.0424194335938,1677634.560104,1.149926707405668,0.01543390571366226,0.1381030110572022,0.09716655313968658,-0.1031014621257782,0.03407308459281921,0.006213320419192314,0.003646522760391235,-0.04162144660949707,2,0.0537146361507679,0.04398020133685865,0.542938771249322,0.8368978121612695,0.01528635155409575,-0.1376644372940063,-0.9903609752655029,24.21753692626953,-0.519378662109375,-34.78826904296875,-1,2,1677634.111956375,4,2,1676669915.666442,1676669834.051682,104,1.104312,1.157197,1.679942,60.36,0,0,1676669908.974066,1677631.508012,0,-0.2061005,98.58089,1676669915.75257,167772201,182416158,0,0,1,1676669915.725558,1,0.39,1
1676669916.222096,9,1676669915.982706,34.21408530340011,-118.3864399136202,246.0308,0,1.50409,351.1045339269389,180,1.590047081095913,6.15565179621735,-9999,1676669916.211551,24.10452270507812,-1.695396423339844,-34.48004150390625,291.3970642089844,279.7582702636719,12.23973560333252,1677634.655958,0.020477294921875,-0.1700897216796875,-0.9781951904296875,1677634.63106,0.3123637735843658,0.06259866803884506,0.02944364212453365,1677634.639093,-113.3173980712891,87.45077514648438,-323.0353088378906,1677634.619857,1.150692805706311,0.01526408217082514,0.1529420363768279,0.3172218799591064,0.04188937321305275,-0.009036633186042309,0.01283830031752586,-0.01508815586566925,0.01175636053085327,2,0.05995448844364612,0.04795261303319998,0.5430086487498913,0.8362102438782945,0.01508532091975212,-0.1523464769124985,-0.988211989402771,24.33978271484375,-1.362014770507812,-34.72720336914062,-1,2,1677634.111956375,4,2,1676669915.666442,1676669834.051682,104,1.104312,1.157197,1.679942,60.36,0,0,1676669908.974066,1677631.508012,0,-0.2061005,98.58089,1676669915.75257,167772201,182416158,0,0,1,1676669915.725558,1,0.39,1
1676669916.276349,10,1676669915.982706,34.21408530340011,-118.3864399136202,246.0308,0,1.50409,351.1045339269389,180,1.590047081095913,6.15565179621735,-9999,1676669916.271385,24.33351135253906,-1.977569580078125,-34.33477783203125,291.2311401367188,279.5923461914062,12.23966598510742,1677634.715711,0.0045013427734375,-0.205322265625,-0.9465789794921875,1677634.690814,0.195143923163414,0.03150679171085358,0.03548156097531319,1677634.699141,-113.0004272460938,87.23751831054688,-323.3605346679688,1677634.67961,1.151621687640562,0.01567495614022433,0.1690909444890803,0.2034994214773178,-0.01335969381034374,0.009825663641095161,0.01654694974422455,0.02276329696178436,-0.00414431095123291,2,0.06657364154164472,0.05253019236955879,0.5431085893009387,0.8353691348346328,0.01545077003538609,-0.1682863235473633,-0.9856170415878296,23.94161224365234,-1.660400390625,-34.9049072265625,-1,2,1677634.111956375,4,2,1676669915.666442,1676669834.051682,104,1.104312,1.157197,1.679942,60.36,0,0,1676669908.974066,1677631.508012,0,-0.2061005,98.58089,1676669915.75257,167772201,182416158,0,0,1,1676669915.725558,1,0.39,1
1676669916.335901,11,1676669915.982706,34.21408530340011,-118.3864399136202,246.0308,0,1.50409,351.1045339269389,180,1.590047081095913,6.15565179621735,-9999,1676669916.331346,24.86555480957031,-2.501945495605469,-34.74310302734375,290.9832763671875,279.344482421875,12.23974800109863,1677634.775464,0.0326690673828125,-0.1738739013671875,-1.0845947265625,1677634.750567,0.2166588008403778,0.2582046389579773,0.0402507483959198,1677634.759187,-112.3965301513672,86.45152282714844,-323.4684143066406,1677634.739364,1.154672739811514,0.02214734437000415,0.1781943577492113,0.1701226085424423,0.2904724180698395,0.06482836604118347,-0.008550200611352921,-0.001137658953666687,0.08315187692642212,2,0.06853310257730533,0.05780326222275637,0.5444213355490137,0.8340068526490965,0.02179486677050591,-0.1772528141736984,-0.9839239716529846,24.42957305908203,-1.837844848632812,-34.25936889648438,-1,2,1677634.111956375,4,2,1676669915.666442,1676669834.051682,104,1.104312,1.157197,1.679942,60.36,0,0,1676669908.974066,1677631.508012,0,-0.2061005,98.58089,1676669915.75257,167772201,182416158,0,0,1,1676669915.725558,1,0.39,1
1676669916.395838,12,1676669915.982706,34.21408530340011,-118.3864399136202,246.0308,0,1.50409,351.1045339269389,180,1.590047081095913,6.15565179621735,-9999,1676669916.391023,24.74005889892578,-2.654945373535156,-33.998046875,290.6618347167969,279.0230407714844,12.23997020721436,1677634.835217,0.034637451171875,-0.182586669921875,-0.9437408447265625,1677634.81032,0.001838646363466978,0.0728696808218956,0.09399200975894928,1677634.81923,-112.8095397949219,86.10704040527344,-322.59033203125,1677634.799117,1.157680036176555,0.02808916010223458,0.1853200943654487,-0.02857931144535542,0.01264358125627041,0.08212761580944061,0.006834555417299271,0.00518403947353363,-0.07161808013916016,2,0.06979701240579245,0.06231835986273865,0.5457405701722863,0.8327135930351092,0.02760456874966621,-0.1842611581087112,-0.9824895858764648,24.49292755126953,-2.568778991699219,-34.56497192382812,-1,2,1677634.111956375,4,2,1676669915.666442,1676669834.051682,104,1.104312,1.157197,1.679942,60.36,0,0,1676669908.974066,1677631.508012,0,-0.2061005,98.58089,1676669915.75257,167772201,182416158,0,0,1,1676669915.725558,1,0.39,1
1676669916.455614,13,1676669915.982706,34.21408530340011,-118.3864399136202,246.0308,0,1.50409,351.1045339269389,180,1.590047081095913,6.15565179621735,-9999,1676669916.450908,25.45378875732422,-2.826461791992188,-33.5390625,289.9193725585938,278.2805786132812,12.24020099639893,1677634.894971,0.0467987060546875,-0.1863555908203125,-1.000686645507812,1677634.870074,0.1460352391004562,0.2334058284759521,0.2211664766073227,1677634.879278,-111.8789215087891,86.19973754882812,-322.3778686523438,1677634.85887,1.165609917170912,0.03593414489025536,0.1884246543864795,0.1340427547693253,0.2409117817878723,0.1993492096662521,0.003726225346326828,-0.01079316437244415,0.02292615175247192,2,0.06868685234380598,0.06670020852911292,0.5492500002967369,0.8301551330789063,0.03529053181409836,-0.187311664223671,-0.9816663861274719,24.87448883056641,-2.809402465820312,-34.06695556640625,-1,2,1677634.111956375,4,2,1676669915.666442,1676669834.051682,104,1.104312,1.157197,1.679942,60.36,0,0,1676669908.974066,1677631.508012,0,-0.2061005,98.58089,1676669915.75257,167772201,182416158,0,0,1,1676669915.725558,1,0.39,1
1676669916.515412,14,1676669915.982706,34.21408530340011,-118.3864399136202,246.0308,0,1.50409,351.1045339269389,180,1.590047081095913,6.15565179621735,-9999,1676669916.510623,25.77255249023438,-3.826278686523438,-33.5177001953125,289.4991455078125,277.8603515625,12.2404317855835,1677634.954724,0.09283447265625,-0.195831298828125,-0.9914093017578125,1677634.929827,0.4125364422798157,0.1648491322994232,0.09398055821657181,1677634.939327,-111.3567810058594,85.29411315917969,-322.2538757324219,1677634.918624,1.177139642502771,0.04748519198115764,0.2008505187549336,0.3608784973621368,0.1909321844577789,0.1252482533454895,0.02961300686001778,0.01059906184673309,-0.01923888921737671,2,0.07024984427177867,0.07529017806024442,0.5541988698256797,0.8259901631545624,0.04651312530040741,-0.1995028257369995,-0.978792667388916,25.56510162353516,-3.408683776855469,-33.85653686523438,-1,2,1677634.111956375,4,2,1676669915.666442,1676669834.051682,104,1.104312,1.157197,1.679942,60.36,0,0,1676669908.974066,1677631.508012,0,-0.2061005,98.58089,1676669915.75257,167772201,182416158,0,0,1,1676669915.725558,1,0.39,1
1676669916.575142,15,1676669915.982706,34.21408530340011,-118.3864399136202,246.0308,0,1.50409,351.1045339269389,180,1.590047081095913,6.15565179621735,-9999,1676669916.57011,25.60265350341797,-4.359855651855469,-33.188232421875,290.0958862304688,278.4570922851562,12.24067974090576,1677635.014477,0.067779541015625,-0.2124481201171875,-1.012893676757812,1677634.98958,0.3419440090656281,-0.4073898792266846,-0.2032463252544403,1677634.999378,-111.7568359375,85.00283813476562,-321.7100219726562,1677634.978377,1.177493899927484,0.05242869799401097,0.2253186786926782,0.3915617763996124,-0.1837694644927979,-0.1090633273124695,0.04723236709833145,0.02784512937068939,-0.02083331346511841,2,0.07899811189678281,0.08406834982437168,0.5540600171613546,0.8244448575341214,0.05108004808425903,-0.2234169989824295,-0.9733836054801941,26.00827789306641,-4.064071655273438,-33.18923950195312,-1,2,1677634.111956375,4,2,1676669915.666442,1676669834.051682,104,1.104312,1.157197,1.679942,60.36,0,0,1676669908.974066,1677631.508012,0,-0.2061005,98.58089,1676669915.75257,167772201,182416158,0,0,1,1676669915.725558,1,0.39,1
1676669916.634667,16,1676669915.982706,34.21408530340011,-118.3864399136202,246.0308,0,1.50409,351.1045339269389,180,1.590047081095913,6.15565179621735,-9999,1676669916.629863,24.72634887695312,-4.644943237304688,-33.67340087890625,289.5913391113281,277.9525451660156,12.24093055725098,1677635.074231,0.039031982421875,-0.176513671875,-1.012344360351562,1677635.049333,-0.08151882886886597,-0.06185750663280487,0.1959189027547836,1677635.059429,-112.4648590087891,84.47099304199219,-322.7428283691406,1677635.03813,1.167874358244948,0.0238879727395439,0.2368188700869855,-0.02204710058867931,-0.3411225974559784,0.0423930399119854,0.06195556372404099,0.1498794555664062,-0.01601159572601318,2,0.09201248736253692,0.07501842043355034,0.5485906870476648,0.8276195295759642,0.02321903221309185,-0.2346114814281464,-0.9718118906021118,24.9295654296875,-4.4161376953125,-33.3115234375,-1,2,1677634.111956375,4,2,1676669915.666442,1676669834.051682,104,1.104312,0,0,60.36,0,0,1676669916.622493,1677631.508012,0,-0.2061005,98.58089,1676669915.75257,167772201,182416158,0,0,1,1676669915.725558,1,0.39,1
1676669916.694857,17,1676669915.982706,34.21408530340011,-118.3864399136202,246.0308,0,1.50409,351.1045339269389,180,1.590047081095913,6.15565179621735,-9999,1676669916.689906,24.31539154052734,-5.484931945800781,-34.09616088867188,286.1561279296875,274.517333984375,12.24121761322021,1677635.133984,0.05438232421875,-0.291839599609375,-0.8970794677734375,1677635.109087,-0.2665970623493195,-0.2861446738243103,1.102392673492432,1677635.119484,-112.5117492675781,83.58503723144531,-322.9914855957031,1677635.097883,1.202027036174515,0.02727004912908771,0.2246583724701438,-0.3460693955421448,0.05909843742847443,0.9971675276756287,0.04916319996118546,0.0003307461738586426,-0.07483911514282227,2,0.08478016059124818,0.074554812383645,0.5631231508727886,0.8186246046455289,0.02658146619796753,-0.2227733284235001,-0.9745078086853027,24.69952392578125,-4.936927795410156,-33.8057861328125,-1,2,1677634.111956375,4,2,1676669915.666442,1676669834.051682,104,1.104312,0,0,60.36,0,0,1676669916.622493,1677632.508586,0,-0.2061005,98.58089,1676669915.75257,167772201,182416158,0,0,1,1676669915.725558,1,0.39,1
1676669916.754503,18,1676669915.982706,34.21408530340011,-118.3864399136202,246.0308,0,1.50409,351.1045339269389,180,1.590047081095913,6.15565179621735,-9999,1676669916.749484,22.54067993164062,-8.110359191894531,-34.37136840820312,281.4040832519531,269.7652893066406,12.2415885925293,1677635.193737,0.0132598876953125,-0.12579345703125,-0.925933837890625,1677635.16884,0.6633111238479614,-0.4107840657234192,1.456239700317383,1677635.179536,-114.7423095703125,81.0999755859375,-322.429931640625,1677635.157637,1.275383232558975,-0.02226048599945389,0.22574318552699,0.4945699274539948,-0.5761556029319763,1.354597687721252,0.08288168907165527,0.04690511524677277,0.07829892635345459,2,0.09707514389882084,0.05816474516155735,0.5905101389133385,0.7990562959912952,-0.02169390209019184,-0.2238307595252991,-0.9743865728378296,23.42193603515625,-6.254692077636719,-34.53897094726562,-1,2,1677634.111956375,4,2,1676669915.666442,1676669834.051682,104,1.104312,0,0,60.36,0,0,1676669916.622493,1677632.508586,0,-0.2061005,98.58089,1676669915.75257,167772201,182416158,0,0,1,1676669915.725558,1,0.39,1
1676669916.814341,19,1676669915.982706,34.21408530340011,-118.3864399136202,246.0308,0,1.50409,351.1045339269389,180,1.590047081095913,6.15565179621735,-9999,1676669916.809256,23.28537750244141,-13.88294982910156,-32.53460693359375,274.0219116210938,262.3831176757812,12.24205303192139,1677635.25349125,0.2448577880859375,-0.071929931640625,-0.832489013671875,1677635.22859325,1.360751152038574,1.343275785446167,2.124471426010132,1677635.23958725,-114.4764862060547,76.00244140625,-321.6004638671875,1677635.21739025,1.384927362805267,-0.04865248929639922,0.2756903865991117,1.266002416610718,0.9141287207603455,2.184874057769775,0.07176020741462708,0.2233985066413879,0.03852200508117676,2,0.121110995926985,0.06915697510047383,0.6296198043192589,0.7642828546289953,-0.04679678380489349,-0.2722113132476807,-0.961098849773407,22.40077209472656,-10.05683898925781,-34.3160400390625,-1,2,1677634.111956375,4,2,1676669915.666442,1676669834.051682,104,1.104312,0,0,60.36,0,0,1676669916.622493,1677632.508586,0,-0.2061005,98.58089,1676669915.75257,167772201,182416158,0,0,1,1676669915.725558,1,0.39,1
1676669916.873869,20,1676669915.982706,34.21408530340011,-118.3864399136202,246.0308,0,1.50409,351.1045339269389,180,1.590047081095913,6.15565179621735,-9999,1676669916.869042,18.31822204589844,-18.96272277832031,-33.17678833007812,267.6393432617188,256.0005493164062,12.24267959594727,1677635.31324425,-0.3350982666015625,-0.57122802734375,-0.6134490966796875,1677635.28834725,1.217649459838867,-3.526705980300903,2.557861089706421,1677635.29964025,-118.4767761230469,70.50407409667969,-321.6533203125,1677635.27714325,1.506015511339461,-0.03948962206756093,0.3538134172870604,1.187450051307678,-1.915639877319336,2.217178106307983,-0.1518545597791672,-0.1884803175926208,-0.408650815486908,2,0.1416707710307883,0.1061410243262518,0.6704972402268478,0.7204838246661334,-0.03703393787145615,-0.3464775383472443,-0.937326967716217,23.48937225341797,-15.65373992919922,-31.84963989257812,-1,2,1677634.111956375,4,2,1676669915.666442,1676669834.051682,104,1.104312,0,0,60.36,0,0,1676669916.622493,1677632.508586,0,-0.2061005,98.58089,1676669915.75257,167772201,182416158,0,0,1,1676669915.725558,1,0.39,1
1676669916.933614,21,1676669915.982706,34.21408530340011,-118.3864399136202,246.0308,0,1.50409,351.1045339269389,180,1.590047081095913,6.15565179621735,-9999,1676669916.928854,19.57500457763672,-19.85242462158203,-32.40118408203125,266.4407958984375,254.802001953125,12.24299144744873,1677635.37299725,-0.062652587890625,-0.442169189453125,-0.9561309814453125,1677635.34810025,-0.2969981133937836,1.198934078216553,-0.2946366965770721,1677635.35969325,-118.3789978027344,69.26095581054688,-320.9876098632812,1677635.33689725,1.638935585095967,-0.1788517922372797,0.402278678890983,0.1975587606430054,0.9407508373260498,0.5564374923706055,0.3117543756961823,-0.1437774002552032,0.1900544166564941,2,0.199779005631925,0.08568395583773537,0.7010092600828647,0.6792146099376787,-0.1636982709169388,-0.3915161192417145,-0.9054931998252869,18.04411315917969,-20.35727691650391,-33.02774047851562,-1,2,1677634.111956375,4,2,1676669915.666442,1676669834.051682,104,1.104312,0,0,60.36,0,0,1676669916.622493,1677632.508586,0,-0.2061005,98.58089,1676669915.75257,167772201,182416158,0,0,1,1676669915.725558,1,0.39,1
1676669916.993318,22,1676669915.982706,34.21408530340011,-118.3864399136202,246.0308,0,1.50409,351.1045339269389,180,1.590047081095913,6.15565179621735,-9999,1676669916.988376,22.57968139648438,-15.32073211669922,-32.48300170898438,271.1729125976562,259.5341186523438,12.24336910247803,1677635.43275125,0.0152587890625,-0.4880218505859375,-0.692901611328125,1677635.40785325,-1.400120973587036,1.158631086349487,-1.693395256996155,1677635.41974625,-114.7108154296875,73.22409057617188,-321.2233581542969,1677635.39665025,1.564080181769866,-0.08371963861965616,0.3556480815157983,-1.555301070213318,0.909117579460144,-1.79745614528656,0.2785995304584503,0.02007296681404114,-0.3881736397743225,2,0.1544144714126051,0.09532729964690198,0.6877559649370405,0.7028943714359557,-0.07838889956474304,-0.3481979668140411,-0.934137761592865,20.46762084960938,-18.71523284912109,-32.3656005859375,-1,2,1677634.111956375,4,2,1676669915.666442,1676669834.051682,104,1.104312,0,0,60.36,0,0,1676669916.622493,1677632.508586,0,-0.2061005,98.58089,1676669915.75257,167772201,182416158,0,0,1,1676669915.725558,1,0.39,1
1676669917.053058,23,1676669915.982706,34.21408530340011,-118.3864399136202,246.0308,0,1.50409,351.1045339269389,180,1.590047081095913,6.15565179621735,-9999,1676669917.048564,24.19061279296875,-17.04143524169922,-30.49118041992188,268.1478271484375,256.509033203125,12.24349117279053,1677635.49250425,0.320098876953125,-0.2294921875,-0.602783203125,1677635.46760725,0.7809600234031677,1.321567058563232,1.066614627838135,1677635.47980025,-113.5235748291016,72.91476440429688,-319.7221374511719,1677635.45640325,1.513706107282491,-0.0220526902502717,0.3124925918871728,0.3556059002876282,0.85921311378479,0.749093234539032,0.04225378111004829,-0.1946437060832977,0.4835959076881409,2,0.1206013441299549,0.09892365813442498,0.6769840409054947,0.7192788390993459,-0.02098298259079456,-0.3074314594268799,-0.9513388276100159,23.26725769042969,-14.99134826660156,-32.246826171875,-1,2,1677634.111956375,4,2,1676669915.666442,1676669834.051682,104,1.104312,0,0,60.36,0,0,1676669916.622493,1677632.508586,0,-0.2061005,98.58089,1676669915.75257,167772201,182416158,0,0,1,1676669915.725558,1,0.39,1
1676669917.11273,24,1676669915.982706,34.21408530340011,-118.3864399136202,246.0308,0,1.50409,351.1045339269389,180,1.590047081095913,6.15565179621735,-9999,1676669917.107836,27.5897216796875,-19.6405029296875,-25.59307861328125,264.6317749023438,252.9929809570312,12.24394989013672,1677635.55225725,0.230194091796875,-0.2001800537109375,-0.588714599609375,1677635.52736025,1.254423975944519,2.387841939926147,0.4757153987884521,1677635.53985325,-109.9207305908203,69.72651672363281,-314.7839660644531,1677635.51615725,1.580572316555253,0.05908913443594175,0.3788121828503522,1.353347420692444,2.25273609161377,0.7730693221092224,0.3251063823699951,0.1586660146713257,0.2737507224082947,2,0.1118062373557132,0.1541358153792814,0.7014561644296384,0.6868046548306245,0.05486804246902466,-0.3698171377182007,-0.9274830222129822,24.95078277587891,-18.157470703125,-29.35919189453125,-1,2,1677634.111956375,4,2,1676669915.666442,1676669834.051682,104,1.104312,0,0,60.36,0,0,1676669916.622493,1677632.508586,0,-0.2061005,98.58089,1676669915.75257,167772201,182416158,0,0,1,1676669915.725558,1,0.39,1
1676669917.172529,25,1676669916.982709,34.21408492414113,-118.3864492088278,246.1694,0,1.72615,351.1045291614073,180,1.476317488606296,6.336689423066665,-9999,1676669917.1678,32.99874114990234,-19.93836975097656,-17.79312133789062,264.6815795898438,253.0428009033203,12.24477100372314,1677635.61201025,0.51324462890625,-0.02587890625,-0.15350341796875,1677635.58711325,1.36984646320343,3.713759183883667,-0.820250928401947,1677635.59990825,-104.6167449951172,68.82167053222656,-307.7695007324219,1677635.57591025,1.579028148585811,0.2154057456089308,0.4358972361894486,0.8551293015480042,3.143389701843262,-0.4850435256958008,0.1202994585037231,0.3402384519577026,0.5457596182823181,2,0.07686593414489568,0.2265402024960239,0.7055654645369698,0.6670446601211842,0.1937569677829742,-0.4222238957881927,-0.8855423331260681,28.82498931884766,-20.08425140380859,-23.67849731445312,-1,2,1677634.111956375,4,2,1676669915.666442,1676669834.051682,104,1.104312,0,0,60.36,0,0,1676669916.622493,1677632.508586,0,-0.2061005,98.58089,1676669915.75257,167772201,182416158,0,0,1,1676669915.725558,1,0.39,1
1676669917.23251,26,1676669916.982709,34.21408492414113,-118.3864492088278,246.1694,0,1.72615,351.1045291614073,180,1.476317488606296,6.336689423066665,-9999,1676669917.227491,39.69564056396484,-15.91960144042969,-2.22857666015625,270.4788818359375,258.840087890625,12.2467679977417,1677635.67176425,0.9910888671875,0.0009002685546875,-0.5105133056640625,1677635.64686725,2.596266508102417,6.086310863494873,-2.878622770309448,1677635.65996125,-98.07955932617188,72.42677307128906,-293.13671875,1677635.63566325,1.445119424996295,0.5516328739216469,0.5108714128568275,2.571195602416992,5.696615219116211,-2.305526733398438,0.2162830829620361,0.5379641056060791,0.4125748872756958,2,0.008113866615030274,0.35842760448461,0.6672804443485576,0.652840399541762,0.4571636021137238,-0.4889375865459442,-0.742927610874176,35.76103973388672,-19.28131103515625,-12.87161254882812,-1,2,1677634.111956375,4,2,1676669915.666442,1676669834.051682,104,1.104312,0,0,60.36,0,0,1676669916.622493,1677632.508586,0,-0.2061005,98.58089,1676669915.75257,167772201,182416158,0,0,1,1676669915.725558,1,0.39,1
1676669917.291976,27,1676669916.982709,34.21408492414113,-118.3864492088278,246.1694,0,1.72615,351.1045291614073,180,1.476317488606296,6.336689423066665,-9999,1676669917.287482,40.55584716796875,-6.549247741699219,11.657470703125,285.4605407714844,273.8217468261719,12.24917793273926,1677635.73151725,1.55419921875,0.03204345703125,-0.8289794921875,1677635.70662025,2.663278579711914,5.490711688995361,-4.721024990081787,1677635.72001225,-96.96986389160156,83.50468444824219,-276.1360473632812,1677635.69541725,1.155403787325501,1.072938018725857,0.4610144738844403,2.751764059066772,6.252350330352783,-4.352878570556641,0.331281840801239,0.4518149793148041,-0.2711930572986603,2,-0.1072241857859995,0.5240782199712704,0.5547912803681072,0.6372216870608585,0.7868821024894714,-0.4448569118976593,-0.4276899993419647,40.69486236572266,-12.69171905517578,4.22076416015625,-1,2,1677634.111956375,4,2,1676669915.666442,1676669834.051682,104,1.104312,0,0,60.36,0,0,1676669916.622493,1677632.508586,0,-0.2061005,98.58089,1676669915.75257,167772201,182416158,0,0,1,1676669915.725558,1,0.39,1
1676669917.351927,28,1676669916.982709,34.21408492414113,-118.3864492088278,246.1694,0,1.72615,351.1045291614073,180,1.476317488606296,6.336689423066665,-9999,1676669917.346919,35.79238891601562,9.235862731933594,21.19680786132812,310.5032958984375,298.864501953125,12.25125503540039,1677635.79127025,1.856292724609375,-0.1710205078125,-0.6537322998046875,1677635.76637325,1.908745288848877,3.57861065864563,-6.263514041900635,1677635.78006425,-102.0448455810547,99.41714477539062,-266.8359680175781,1677635.75517025,0.9166641598052664,1.434838779987334,0.1946489481265678,1.859869241714478,3.758345127105713,-6.284811019897461,0.6046745181083679,0.1553057134151459,-0.6558235883712769,2,-0.2238488187554996,0.6191946042279206,0.3891036193641171,0.6442732206220653,0.9720617532730103,-0.1934221237897873,-0.1329794973134995,38.93731689453125,1.361892700195312,16.51638793945312,-1,2,1677634.111956375,4,2,1676669915.666442,1676669834.051682,104,1.104312,0,0,60.36,0,0,1676669916.622493,1677632.508586,0,-0.2061005,98.58089,1676669915.75257,167772201,182416158,0,0,1,1676669915.725558,1,0.39,1
1676669917.411669,29,1676669916.982709,34.21408492414113,-118.3864492088278,246.1694,0,1.72615,351.1045291614073,180,1.476317488606296,6.336689423066665,-9999,1676669917.40694,28.51100158691406,23.10518646240234,22.5413818359375,336.5962829589844,324.9574890136719,12.25238990783691,1677635.85102425,1.7283935546875,-0.1440277099609375,-0.2471923828125,1677635.82612725,2.805663108825684,0.3446814715862274,-4.752425670623779,1677635.84011525,-109.30712890625,113.1069030761719,-266.182861328125,1677635.81492325,0.7713650950729305,1.595595358774331,-0.1504111563321082,2.650284290313721,0.899299144744873,-5.140096664428711,0.9816566705703735,-0.2673983573913574,-0.5124011039733887,2,-0.3171357610297175,0.6416254134665723,0.2121142668528045,0.6653940039645236,0.9884054660797119,0.1498446613550186,0.02451652474701405,32.05058288574219,16.59349822998047,23.08975219726562,-1,2,1677634.111956375,4,2,1676669915.666442,1676669834.051682,104,1.104312,0,0,60.36,0,0,1676669916.622493,1677632.508586,0,-0.2061005,98.58089,1676669915.75257,167772201,182416158,0,0,1,1676669915.725558,1,0.39,1
1676669917.471191,30,1676669916.982709,34.21408492414113,-118.3864492088278,246.1694,0,1.72615,351.1045291614073,180,1.476317488606296,6.336689423066665,-9999,1676669917.466439,24.88558959960938,30.47157287597656,17.772705078125,349.8586120605469,338.2198181152344,12.25302314758301,1677635.91077725,1.542678833007812,-0.2425384521484375,-0.112701416015625,1677635.88588025,1.70942234992981,-1.378129124641418,-2.394954204559326,1677635.90016325,-112.646484375,119.9416809082031,-271.1873474121094,1677635.87467625,0.6076363056132932,1.527098653172975,-0.3950569720874594,2.12779712677002,-1.169871687889099,-2.915731430053711,0.8410441875457764,-0.5505712032318115,-0.2036080360412598,2,-0.338120398456166,0.6045784423347899,0.08242331703512384,0.7164955097168363,0.9220935106277466,0.3848607838153839,-0.04031900689005852,26.26012420654297,27.39350891113281,20.053955078125,-1,2,1677634.111956375,4,2,1676669915.666442,1676669834.051682,104,1.104312,0,0,60.36,0,0,1676669916.622493,1677632.508586,0,-0.2061005,98.58089,1676669915.75257,167772201,182416158,0,0,1,1676669915.725558,1,0.39,1
1676669917.531152,31,1676669916.982709,34.21408492414113,-118.3864492088278,246.1694,0,1.72615,351.1045291614073,180,1.476317488606296,6.336689423066665,-9999,1676669917.526307,24.95381927490234,32.00708770751953,13.957275390625,350.23681640625,338.5980224609375,12.2533597946167,1677635.97053025,1.21478271484375,-0.1190338134765625,0.008148193359375,1677635.94563325,0.420923262834549,-1.60093367099762,-0.1997019201517105,1677635.96021525,-112.2626647949219,121.0986022949219,-274.9398193359375,1677635.93443025,0.5198641705119287,1.40051440057144,-0.4828298581265507,0.5701022148132324,-1.543383955955505,-0.4850793182849884,0.491733729839325,-0.6457296013832092,0.06762979924678802,2,-0.3374962078534488,0.5577204988120028,0.04194486159804517,0.7571557833397002,0.8728750944137573,0.4642874002456665,-0.1500883102416992,24.26415252685547,31.61875915527344,15.79043579101562,-1,2,1677634.111956375,4,2,1676669915.666442,1676669834.051682,104,1.104312,0,0,60.36,0,0,1676669916.622493,1677632.508586,0,-0.2061005,98.58089,1676669915.75257,167772201,182416158,0,0,1,1676669915.725558,1,0.39,1
1676669917.591916,32,1676669916.982709,34.21408492414113,-118.3864492088278,246.1694,0,1.72615,351.1045291614073,180,1.476317488606296,6.336689423066665,-9999,1676669917.585913,27.68866729736328,30.77618408203125,12.921630859375,344.5870056152344,332.9482116699219,12.2536735534668,1677636.03028425,1.00274658203125,0.0113677978515625,0.1760711669921875,1677636.00538625,-0.6665157079696655,-1.129528403282166,0.9099875092506409,1677636.02027025,-109.4514770507812,119.6945037841797,-275.7420349121094,1677635.99418325,0.5235761387214247,1.303280465513809,-0.4724338113787993,-0.5926378965377808,-1.37319552898407,0.7704943418502808,0.2366383075714111,-0.5670543313026428,0.3325957059860229,2,-0.3323382748368047,0.5214022362723995,0.06296241485750531,0.783407115884778,0.8587900996208191,0.4550548493862152,-0.2353819608688354,26.10958862304688,32.12612915039062,13.08135986328125,-1,2,1677634.111956375,4,2,1676669915.666442,1676669834.051682,104,1.104312,0,0,60.36,0,0,1676669916.622493,1677632.508586,0,-0.2061005,98.58089,1676669915.75257,167772201,182416158,0,0,1,1676669915.725558,1,0.39,1
1676669917.6505,33,1676669916.982709,34.21408492414113,-118.3864492088278,246.1694,0,1.72615,351.1045291614073,180,1.476317488606296,6.336689423066665,-9999,1676669917.646212,29.64724731445312,29.03617858886719,13.013427734375,339.6360473632812,327.9972534179688,12.25395011901855,1677636.09003725,0.82342529296875,0.0322723388671875,0.040130615234375,1677636.06514025,-0.3226648569107056,0.4369922280311584,1.208531260490417,1677636.08032725,-107.6309814453125,118.0719909667969,-275.6401062011719,1677636.05393625,0.5829417159591039,1.284663963251563,-0.4252116386466878,-0.4281027317047119,0.1301037669181824,1.126383304595947,0.01173597574234009,-0.4075239300727844,0.4473266005516052,2,-0.3300999149363448,0.5123268247323142,0.1038342342643956,0.785985829003981,0.8739145994186401,0.4125135838985443,-0.2571105360984802,28.87486267089844,30.09146118164062,12.55105590820312,-1,2,1677634.111956375,4,2,1676669915.666442,1676669834.051682,104,1.104312,0,0,60.36,0,0,1676669916.622493,1677633.509164,0,-0.1981812,98.58078,1676669915.75257,167772201,182416158,0,0,1,1676669915.725558,1,0.39,1
1676669917.710594,34,1676669916.982709,34.21408492414113,-118.3864492088278,246.1694,0,1.72615,351.1045291614073,180,1.476317488606296,6.336689423066665,-9999,1676669917.705609,30.82135772705078,26.34170532226562,15.32839965820312,334.8303833007812,323.1915893554688,12.25421714782715,1677636.14979025,0.747528076171875,0.2504425048828125,-0.087860107421875,1677636.12489325,-0.7209256887435913,0.8190631866455078,1.007502555847168,1677636.14037825,-106.4555969238281,115.3773651123047,-273.0058898925781,1677636.11369025,0.6301252135602519,1.333622069909934,-0.3612234516565695,-0.6432691812515259,0.7160053849220276,1.104112029075623,-0.1594758629798889,-0.3218027353286743,0.2347018420696259,2,-0.3227416401105292,0.5347343527174967,0.1339087847127687,0.7693928932191986,0.9092774987220764,0.3534190058708191,-0.2197940051555634,30.36529541015625,27.62959289550781,14.08880615234375,-1,2,1677634.111956375,4,2,1676669915.666442,1676669834.051682,104,1.104312,0,0,60.36,0,0,1676669916.622493,1677633.509164,0,-0.1981812,98.58078,1676669915.75257,167772201,182416158,0,0,1,1676669915.725558,1,0.39,1
1676669917.770274,35,1676669916.982709,34.21408492414113,-118.3864492088278,246.1694,0,1.72615,351.1045291614073,180,1.476317488606296,6.336689423066665,-9999,1676669917.765211,30.90518188476562,23.85287475585938,18.8304443359375,330.8270874023438,319.1882934570312,12.25442886352539,1677636.209542542,0.9160003662109375,0.4321746826171875,-0.1451873779296875,1677636.18464625,-0.5865247249603271,1.730671167373657,0.9172983765602112,1677636.20043425,-106.4759063720703,112.90625,-269.4677429199219,1677636.17344325,0.6967680907098582,1.417680721535074,-0.3136035937995705,-0.9365186095237732,1.737973809242249,0.8993052244186401,-0.2006279230117798,0.002333104610443115,0.1163166016340256,2,-0.3309182933204661,0.5638735387091718,0.1604214568790678,0.7394624453619139,0.9400994181632996,0.3084884583950043,-0.1450794339179993,30.91392517089844,25.00414276123047,16.7139892578125,-1,2,1677634.111956375,4,2,1676669915.666442,1676669834.051682,104,1.104312,0,0,60.36,0,0,1676669916.622493,1677633.509164,0,-0.1981812,98.58078,1676669915.75257,167772201,182416158,0,0,1,1676669915.725558,1,0.39,1
1676669917.829753,36,1676669916.982709,34.21408492414113,-118.3864492088278,246.1694,0,1.72615,351.1045291614073,180,1.476317488606296,6.336689423066665,-9999,1676669917.824959,31.01118469238281,23.12709045410156,19.06912231445312,329.4732055664062,317.8344116210938,12.2545051574707,1677636.269295542,0.8822174072265625,0.522369384765625,-0.0297088623046875,1677636.244398542,-0.3247999250888824,-0.2577351331710815,-0.1830553114414215,1677636.260487542,-106.3948211669922,112.3167724609375,-269.5851440429688,1677636.233194542,0.7321800022612657,1.474152096448231,-0.2696227595381956,-0.4437134861946106,-0.1798544675111771,0.1759776920080185,0.06529980897903442,0.3176470994949341,0.1214348003268242,2,-0.3313386565752994,0.5862685872583625,0.1782975170690849,0.7174356233311994,0.9593736529350281,0.2663678526878357,-0.09300767630338669,30.96243286132812,23.22936248779297,18.57748413085938,-1,2,1677634.111956375,4,2,1676669915.666442,1676669834.051682,104,1.104312,0,0,60.36,0,0,1676669916.622493,1677633.509164,0,-0.1981812,98.58078,1676669915.75257,167772201,182416158,0,0,1,1676669915.725558,1,0.39,1
1676669917.889492,37,1676669916.982709,34.21408492414113,-118.3864492088278,246.1694,0,1.72615,351.1045291614073,180,1.476317488606296,6.336689423066665,-9999,1676669917.8849,30.90714263916016,23.86013031005859,18.13058471679688,331.0297241210938,319.3909301757812,12.25460910797119,1677636.329048542,1.040878295898438,0.2499237060546875,-0.1239013671875,1677636.304151542,0.3104486763477325,0.1422703266143799,-0.1705762594938278,1677636.320541542,-106.3282775878906,113.12451171875,-270.5250244140625,1677636.292948542,0.7300713729979371,1.46222047708327,-0.2853581962809079,0.3667310774326324,0.03080510161817074,-0.1884218603372574,-0.1064831018447876,0.06754365563392639,0.04157207906246185,2,-0.3348144390966916,0.5795765782500877,0.1743617475215122,0.7222107143932724,0.9539104700088501,0.2815011739730835,-0.1039805635809898,30.75495147705078,23.51117706298828,18.43072509765625,-1,2,1677634.111956375,4,2,1676669915.666442,1676669834.051682,104,1.104312,0,0,60.36,0,0,1676669916.622493,1677633.509164,0,-0.1981812,98.58078,1676669915.75257,167772201,182416158,0,0,1,1676669915.725558,1,0.39,1
1676669917.949785,38,1676669916.982709,34.21408492414113,-118.3864492088278,246.1694,0,1.72615,351.1045291614073,180,1.476317488606296,6.336689423066665,-9999,1676669917.944404,29.77886962890625,24.75765991210938,18.36026000976562,332.9906311035156,321.3518371582031,12.25476169586182,1677636.388802542,1.165267944335938,0.136322021484375,0.0258331298828125,1677636.363904542,0.04157460853457451,0.2487903833389282,-0.6632989048957825,1677636.380594542,-107.6370849609375,114.0645446777344,-270.2119750976562,1677636.352701542,0.725409624947401,1.466380699832698,-0.3048414998870606,-0.1883554905653,0.2253593653440475,-0.6998715400695801,0.2276923060417175,0.1354049146175385,0.06180769205093384,2,-0.3401750105200099,0.578420833740717,0.165577173895966,0.7226994125512205,0.9486992359161377,0.3001419901847839,-0.09942059963941574,30.40946197509766,24.16128540039062,17.88876342773438,-1,2,1677634.111956375,4,2,1676669915.666442,1676669834.051682,104,1.104312,0,0,60.36,0,0,1676669916.622493,1677633.509164,0,-0.1981812,98.58078,1676669915.75257,167772201,182416158,0,0,1,1676669915.725558,1,0.39,1
1676669918.008967,39,1676669916.982709,34.21408492414113,-118.3864492088278,246.1694,0,1.72615,351.1045291614073,180,1.476317488606296,6.336689423066665,-9999,1676669918.00444,29.42372131347656,25.10956573486328,18.4447021484375,334.2723388671875,322.633544921875,12.25497245788574,1677636.448555542,1.074310302734375,0.3538055419921875,-0.044921875,1677636.423658542,0.2308380007743835,0.580543041229248,0.07949882000684738,1677636.440642542,-107.9679718017578,114.4004669189453,-270.0219116210938,1677636.412454542,0.710247744474016,1.478097323755023,-0.3207563458543222,0.2341215312480927,0.3491610288619995,0.1269923895597458,0.237831711769104,-0.09821286797523499,0.0616304874420166,2,-0.3418692107543897,0.5824112480258877,0.1528411570976579,0.7214999529599929,0.9449227452278137,0.3152844309806824,-0.08784516155719757,29.31316375732422,25.05073547363281,18.15460205078125,-1,2,1677634.111956375,4,2,1676669915.666442,1676669834.051682,104,1.104312,0,0,60.36,0,0,1676669916.622493,1677633.509164,0,-0.1981812,98.58078,1676669915.75257,167772201,182416158,0,0,1,1676669915.725558,1,0.39,1
1676669918.070075,40,1676669916.982709,34.21408492414113,-118.3864492088278,246.1694,0,1.72615,351.1045291614073,180,1.476317488606296,6.336689423066665,-9999,1676669918.063955,28.70977020263672,24.96082305908203,19.67385864257812,336.1239013671875,324.485107421875,12.25524044036865,1677636.508308542,0.942596435546875,0.10894775390625,0.0298919677734375,1677636.483411542,0.5129762291908264,1.139031291007996,0.2944753170013428,1677636.500695542,-108.6723327636719,114.1200561523438,-268.7776184082031,1677636.472208542,0.6835908958532352,1.527002842250919,-0.3095044044593101,0.6285252571105957,1.189891338348389,0.402017205953598,0.1072207093238831,-0.08200666308403015,-0.05252373218536377,2,-0.3339009949398551,0.6063501322110983,0.1388337388200735,0.7082194208373319,0.9515713453292847,0.3045866191387177,-0.04169928655028343,28.94849395751953,24.73902130126953,18.515625,-1,2,1677634.111956375,4,2,1676669915.666442,1676669834.051682,104,1.104312,0,0,60.36,0,0,1676669916.622493,1677633.509164,0,-0.1981812,98.58078,1676669915.75257,167772201,182416158,0,0,1,1676669915.725558,1,0.39,1
1676669918.128738,41,1676669916.982709,34.21408492414113,-118.3864492088278,246.1694,0,1.72615,351.1045291614073,180,1.476317488606296,6.336689423066665,-9999,1676669918.123793,27.3680419921875,24.96852111816406,21.25180053710938,338.8116455078125,327.1728515625,12.25556659698486,1677636.568061542,1.036178588867188,0.3098297119140625,0.2621307373046875,1677636.543164542,0.8003126382827759,1.682441115379333,0.3564169704914093,1677636.560750542,-110.1401214599609,114.2533111572266,-267.28076171875,1677636.531961542,0.6580847728705919,1.59808261307151,-0.2886704219713229,0.5887585282325745,1.826867461204529,0.4728422462940216,0.1339577436447144,-0.1459144651889801,0.2575526237487793,2,-0.3241082035276457,0.6387729519254408,0.1254562745135208,0.6864282630020667,0.9582664370536804,0.2846779227256775,0.02615402266383171,27.87103271484375,24.66122436523438,20.44100952148438,-1,2,1677634.111956375,4,2,1676669915.666442,1676669834.051682,104,1.104312,0,0,60.36,0,0,1676669916.622493,1677633.509164,0,-0.1981812,98.58078,1676669915.75257,167772201,182416158,0,0,1,1676669915.725558,1,0.39,1
1676669918.191876,42,1676669917.982713,34.21408273268089,-118.3864508717435,246.0489,0,1.452536,351.1045283286352,180,1.559984774854347,6.623039399439913,-9999,1676669918.183473,23.96578979492188,26.79187774658203,23.160400390625,347.1315612792969,335.4927673339844,12.25606441497803,1677636.627815542,0.8479766845703125,0.228485107421875,0.1447296142578125,1677636.602918542,1.502180457115173,2.715683221817017,-0.07541566342115402,1677636.620803542,-113.6585845947266,116.1283416748047,-265.3897094726562,1677636.591714542,0.597054788023337,1.693870105545516,-0.2853041847218343,1.289852857589722,2.666524410247803,-0.1132719591259956,-0.01278841495513916,-0.008393287658691406,0.2799959182739258,2,-0.3081184962769482,0.6811485549543993,0.09099822597328011,0.6578897045212904,0.9523177146911621,0.2814493477344513,0.1178007200360298,26.22451782226562,25.96985626220703,22.64248657226562,-1,2,1677634.111956375,4,2,1676669915.666442,1676669834.051682,104,1.104312,0,0,60.36,0,0,1676669916.622493,1677633.509164,0,-0.1981812,98.58078,1676669915.75257,167772201,182416158,0,0,1,1676669915.725558,1,0.39,1
1676669918.248384,43,1676669917.982713,34.21408273268089,-118.3864508717435,246.0489,0,1.452536,351.1045283286352,180,1.559984774854347,6.623039399439913,-9999,1676669918.243416,22.09823608398438,28.75508117675781,22.32577514648438,355.2486267089844,343.6098327636719,12.25643825531006,1677636.687568542,1.012176513671875,0.2936553955078125,-0.0772247314453125,1677636.662671542,1.537811517715454,1.43059229850769,0.2390237599611282,1677636.680851542,-115.2877349853516,118.1059722900391,-266.4034423828125,1677636.651468542,0.4920457991729755,1.802900423162686,-0.3048542972155894,1.786936402320862,1.564911842346191,0.316408634185791,-0.1853612065315247,-0.073606938123703,-0.2582835853099823,2,-0.2801573096713197,0.7288494824287961,0.03387355392516389,0.6238131690516747,0.9283116459846497,0.3001541793346405,0.2194193750619888,22.89113616943359,28.02831268310547,22.59689331054688,-1,2,1677634.111956375,4,2,1676669915.666442,1676669834.051682,104,1.104312,0,0,60.36,0,0,1676669916.622493,1677633.509164,0,-0.1981812,98.58078,1676669915.75257,167772201,182416158,0,0,1,1676669915.725558,1,0.39,1
1676669918.31065,44,1676669917.982713,34.21408273268089,-118.3864508717435,246.0489,0,1.452536,351.1045283286352,180,1.559984774854347,6.623039399439913,-9999,1676669918.302932,20.44090270996094,30.039794921875,22.30581665039062,1.474666595458984,349.8358764648438,12.25672721862793,1677636.747321542,1.146133422851562,0.025604248046875,0.1724853515625,1677636.722424542,0.8194535970687866,1.535116314888,-0.3632186949253082,1677636.740900542,-116.9737243652344,119.3342590332031,-266.2362670898438,1677636.711221542,0.4193190346964439,1.853177347302933,-0.326437015944804,0.9079365134239197,1.440562605857849,-0.4828525185585022,0.3967956900596619,-0.05408391356468201,-0.09905716776847839,2,-0.2596531817958496,0.7513616658999829,-0.00374924322895448,0.6066480053277348,0.9096770882606506,0.3206702470779419,0.2639282643795013,21.42502593994141,29.24863433837891,22.29635620117188,-1,2,1677634.111956375,4,2,1676669915.666442,1676669834.051682,104,1.104312,0,0,60.36,0,0,1676669916.622493,1677633.509164,0,-0.1981812,98.58078,1676669915.75257,167772201,182416158,0,0,1,1676669915.725558,1,0.39,1
1676669918.367879,45,1676669917.982713,34.21408273268089,-118.3864508717435,246.0489,0,1.452536,351.1045283286352,180,1.559984774854347,6.623039399439913,-9999,1676669918.363003,20.10414886474609,29.43270111083984,22.92922973632812,357.1240844726562,345.4852905273438,12.25708198547363,1677636.807075542,1.1805419921875,0.20135498046875,0.050140380859375,1677636.782177542,-1.497536778450012,-1.10628354549408,-0.6468589305877686,1677636.800952542,-117.2538146972656,118.380126953125,-265.53369140625,1677636.770974542,0.4147317317315884,1.906976711341463,-0.3439900344790646,-1.003676414489746,-0.5907410383224487,-0.3671945631504059,0.3042145967483521,-0.272930234670639,-0.2086292505264282,2,-0.262353463651296,0.7657999915809328,-0.01915591420126661,0.586816825306639,0.8887174129486084,0.3372460603713989,0.3105579316616058,20.06820678710938,30.07850646972656,22.41937255859375,-1,2,1677634.111956375,4,2,1676669915.666442,1676669834.051682,104,1.104312,0,0,60.36,0,0,1676669916.622493,1677633.509164,0,-0.1981812,98.58078,1676669915.75257,167772201,182416158,0,0,1,1676669915.725558,1,0.39,1
1676669918.430014,46,1676669917.982713,34.21408273268089,-118.3864508717435,246.0489,0,1.452536,351.1045283286352,180,1.559984774854347,6.623039399439913,-9999,1676669918.422507,23.27030181884766,27.38269805908203,23.07794189453125,345.6058959960938,333.9671020507812,12.25784873962402,1677636.866828542,0.891021728515625,0.3353118896484375,0.300018310546875,1677636.841931542,-2.294535160064697,-3.645853042602539,-0.6121187806129456,1677636.861007542,-113.8738708496094,116.4239959716797,-265.6299133300781,1677636.830728542,0.5437097531035486,1.831816795070137,-0.3623650652869662,-2.226809501647949,-3.243675231933594,-0.8870089054107666,0.006264805793762207,-0.04403135180473328,-0.197378009557724,2,-0.315200008098219,0.7220131377752876,0.02320441105532739,0.6154734650651623,0.9033879041671753,0.3544867038726807,0.2413080334663391,20.78350830078125,28.84428405761719,23.62844848632812,-1,2,1677634.111956375,4,2,1676669915.666442,1676669834.051682,104,1.104312,0,0,60.36,0,0,1676669916.622493,1677633.509164,0,-0.1981812,98.58078,1676669915.75257,167772201,182416158,0,0,1,1676669915.725558,1,0.39,1
1676669918.487099,47,1676669917.982713,34.21408273268089,-118.3864508717435,246.0489,0,1.452536,351.1045283286352,180,1.559984774854347,6.623039399439913,-9999,1676669918.482532,22.52313232421875,25.43331909179688,25.65982055664062,340.185302734375,328.5465087890625,12.25855541229248,1677636.926581542,0.6998443603515625,0.16363525390625,0.48876953125,1677636.901684542,-2.844284057617188,-0.8993292450904846,-2.116268157958984,1677636.921060542,-115.1200256347656,114.5186614990234,-262.583251953125,1677636.890481542,0.7149369770720841,1.724959821870021,-0.3772267154629749,-2.859908819198608,-1.359005808830261,-1.592466831207275,0.04917049407958984,-0.03611397743225098,0.2295571565628052,2,-0.3752911658266859,0.6561517600360774,0.09020041180977301,0.6484484012627623,0.9186639785766602,0.3683435916900635,0.1427571773529053,23.94269561767578,26.62255859375,23.55023193359375,-1,2,1677634.111956375,4,2,1676669915.666442,1676669834.051682,104,1.104312,0,0,60.36,0,0,1676669916.622493,1677633.509164,0,-0.1981812,98.58078,1676669915.75257,167772201,182416158,0,0,1,1676669915.725558,1,0.39,1
1676669918.549865,48,1676669917.982713,34.21408273268089,-118.3864508717435,246.0489,0,1.452536,351.1045283286352,180,1.559984774854347,6.623039399439913,-9999,1676669918.542015,12.12628936767578,27.11924743652344,30.46182250976562,356.9977722167969,345.3589782714844,12.25976181030273,1677636.986335542,-0.9038238525390625,0.625274658203125,0.965911865234375,1677636.961437542,-0.5753746032714844,3.928009986877441,-4.699276447296143,1677636.981110542,-125.6915435791016,116.6110687255859,-258.1890258789062,1677636.950234542,0.9313201817898679,1.89573181405456,-0.5228877754893141,-1.790960431098938,4.62746000289917,-4.545872211456299,-0.2480917572975159,-0.2411597371101379,0.2697356343269348,2,-0.4870261921647778,0.633324905624528,0.06548496383601377,0.5978432535725269,0.821043848991394,0.4993841350078583,0.2765899002552032,19.47322845458984,25.24181365966797,27.9129638671875,-1,2,1677634.111956375,4,2,1676669915.666442,1676669834.051682,104,1.104312,0,0,60.36,0,0,1676669916.622493,1677633.509164,0,-0.1981812,98.58078,1676669915.75257,167772201,182416158,0,0,1,1676669915.725558,1,0.39,1
1676669918.606584,49,1676669917.982713,34.21408273268089,-118.3864508717435,246.0489,0,1.452536,351.1045283286352,180,1.559984774854347,6.623039399439913,-9999,1676669918.601876,10.38060760498047,31.89040374755859,26.03024291992188,6.989833831787109,355.3510437011719,12.26011943817139,1677637.046088542,0.6373291015625,0.7437591552734375,-0.2308807373046875,1677637.021191542,2.055622577667236,-0.1652656495571136,-1.219506144523621,1677637.041161542,-127.17236328125,121.1557922363281,-262.5926513671875,1677637.009988542,0.8868679025678494,1.903159959312427,-0.7242277922012513,3.023049831390381,-0.6221084594726562,-1.442835688591003,-0.01804870367050171,0.2049810886383057,0.3883196115493774,2,-0.5124484554848352,0.5996578807181825,-0.02771138900713782,0.6140349683670956,0.7080205082893372,0.6625572443008423,0.2443859875202179,11.83689880371094,29.53681945800781,28.32272338867188,-1,2,1677634.111956375,4,2,1676669915.666442,1676669834.051682,104,1.104312,0,0,60.36,0,0,1676669916.622493,1677633.509164,0,-0.1981812,98.58078,1676669915.75257,167772201,182416158,0,0,1,1676669915.725558,1,0.39,1
1676669918.670679,50,1676669917.982713,34.21408273268089,-118.3864508717435,246.0489,0,1.452536,351.1045283286352,180,1.559984774854347,6.623039399439913,-9999,1676669918.661462,11.33895874023438,30.85560607910156,26.5052490234375,1.992031097412109,350.3532409667969,12.26028347015381,1677637.105841542,0.92919921875,0.5716094970703125,0.4541015625,1677637.080944542,-0.8677052855491638,-0.7453977465629578,0.5789477825164795,1677637.101213542,-125.9629669189453,119.8990325927734,-262.0503540039062,1677637.069741542,0.8481361366969085,1.882157699101218,-0.7527979128587697,-0.7786892056465149,-0.5741410255432129,0.6111440658569336,0.07331627607345581,0.08528327941894531,-0.2958369851112366,2,-0.5065644929155194,0.595968128499011,-0.04539884386574539,0.6214122503475416,0.6946889162063599,0.6836832761764526,0.2235711961984634,10.24325561523438,31.89270782470703,26.18450927734375,-1,2,1677634.111956375,4,2,1676669915.666442,1676669834.051682,104,1.104312,0,0,60.36,0,0,1676669916.622493,1677634.509736,0,-0.1981812,98.58078,1676669915.75257,167772201,182416158,0,0,1,1676669915.725558,1,0.39,1
1676669918.72618,51,1676669917.982713,34.21408273268089,-118.3864508717435,246.0489,0,1.452536,351.1045283286352,180,1.559984774854347,6.623039399439913,-9999,1676669918.72142,11.56429290771484,30.42317962646484,27.124267578125,2.313228607177734,350.6744384765625,12.26046562194824,1677637.165595542,1.079971313476562,0.5375213623046875,0.3817901611328125,1677637.140697542,-0.0196304265409708,0.5424065589904785,0.2378913909196854,1677637.161264542,-125.8907623291016,119.6287994384766,-261.5843200683594,1677637.129494542,0.8860633277140584,1.904254926974007,-0.707741667429166,-0.1644279062747955,0.8364520668983459,0.5177276730537415,0.1448307633399963,-0.2674747705459595,0.2478485405445099,2,-0.509155219922345,0.6042453515416102,-0.02183842556197746,0.6125125681603044,0.7179774641990662,0.6501194834709167,0.2487029582262039,11.68982696533203,30.34374237060547,27.022216796875,-1,2,1677634.111956375,4,2,1676669915.666442,1676669834.051682,104,1.104312,0,0,60.36,0,0,1676669916.622493,1677634.509736,0,-0.1981812,98.58078,1676669915.75257,167772201,182416158,0,0,1,1676669915.725558,1,0.39,1
1676669918.791053,52,1676669917.982713,34.21408273268089,-118.3864508717435,246.0489,0,1.452536,351.1045283286352,180,1.559984774854347,6.623039399439913,-9999,1676669918.781041,9.14080810546875,30.99640655517578,27.31454467773438,7.623561859130859,355.9847717285156,12.26070499420166,1677637.225352875,0.51300048828125,0.8128662109375,0.3563079833984375,1677637.200451542,-0.02279479429125786,1.249956488609314,-0.7952374815940857,1677637.221319875,-128.2612457275391,120.2069244384766,-261.3845825195312,1677637.189247542,0.8964102491541195,1.937120665366326,-0.7269912243691037,-0.218324601650238,0.8351686000823975,-0.9653274416923523,0.2996206283569336,0.09407281875610352,0.1127119958400726,2,-0.5152930047352613,0.6068668300027485,-0.03460722232607533,0.6041423044487241,0.6976021528244019,0.6646245718002319,0.2676284611225128,10.84551239013672,30.36128234863281,27.49087524414062,-1,2,1677634.111956375,4,2,1676669915.666442,1676669834.051682,104,1.104312,0,0,60.36,0,0,1676669916.622493,1677634.509736,0,-0.1981812,98.58078,1676669915.75257,167772201,182416158,0,0,1,1676669915.725558,1,0.39,1
