loggingTime,loggingSample,locationTimestamp_since1970,locationLatitude,locationLongitude,locationAltitude,locationSpeed,locationSpeedAccuracy,locationCourse,locationCourseAccuracy,locationVerticalAccuracy,locationHorizontalAccuracy,locationFloor,locationHeadingTimestamp_since1970,locationHeadingX,locationHeadingY,locationHeadingZ,locationTrueHeading,locationMagneticHeading,locationHeadingAccuracy,accelerometerTimestamp_sinceReboot,accelerometerAccelerationX,accelerometerAccelerationY,accelerometerAccelerationZ,gyroTimestamp_sinceReboot,gyroRotationX,gyroRotationY,gyroRotationZ,magnetometerTimestamp_sinceReboot,magnetometerX,magnetometerY,magnetometerZ,motionTimestamp_sinceReboot,motionYaw,motionRoll,motionPitch,motionRotationRateX,motionRotationRateY,motionRotationRateZ,motionUserAccelerationX,motionUserAccelerationY,motionUserAccelerationZ,motionAttitudeReferenceFrame,motionQuaternionX,motionQuaternionY,motionQuaternionZ,motionQuaternionW,motionGravityX,motionGravityY,motionGravityZ,motionMagneticFieldX,motionMagneticFieldY,motionMagneticFieldZ,motionHeading,motionMagneticFieldCalibrationAccuracy,activityTimestamp_sinceReboot,activity,activityActivityConfidence,activityActivityStartDate,pedometerStartDate,pedometerNumberofSteps,pedometerAverageActivePace,pedometerCurrentPace,pedometerCurrentCadence,pedometerDistance,pedometerFloorAscended,pedometerFloorDescended,pedometerEndDate,altimeterTimestamp_sinceReboot,altimeterReset,altimeterRelativeAltitude,altimeterPressure,IP_Timestamp_since1970,IP_en0,IP_pdp_ip0,deviceID,deviceOrientationTimeStamp_since1970,deviceOrientation,batteryTimeStamp_since1970,batteryState,batteryLevel,label
1676782831.143295,1,1676782830.390885,34.04867218582972,-117.8139260803996,216.4357,0.1616617,0.5787297,310.1003659340383,77.97750780409244,10.01197028272048,10.02341396498056,-9999,1676782831.133548,-18.29003143310547,-33.99516296386719,-27.39227294921875,190.4110870361328,178.9279174804688,17.76794815063477,1739084.17271675,-0.10650634765625,-0.397308349609375,-0.8524932861328125,1739084.16773775,0.3401208221912384,0.5057827830314636,0.06052938848733902,1739084.16157375,-145.436279296875,35.36166381835938,-321.8023376464844,1739084.16773775,0.05270737923912041,-0.1234841539179752,0.427953129693031,0.3340671062469482,0.4937484264373779,0.05751212313771248,-0.01328828930854797,0.00987321138381958,0.09554684162139893,2,0.2134580638272562,-0.05468990932398278,0.01260273396261974,0.9753388387816283,-0.1120626926422119,-0.4150094091892242,-0.9028893113136292,-18.29003143310547,-33.99516296386719,-27.39227294921875,-1,2,1739080.303064542,4,1,1676782827.265931,0,0,0,0,0,0,0,0,0,1739081.575215,0,0.07926941,99.0821,0,0,0,0,0,1,1676782831.118168,1,0.82,1
1676782831.172657,2,1676782830.390885,34.04867218582972,-117.8139260803996,216.4357,0.1616617,0.5787297,310.1003659340383,77.97750780409244,10.01197028272048,10.02341396498056,-9999,1676782831.153205,-18.36258697509766,-33.99363708496094,-27.02349853515625,190.2360382080078,178.7528686523438,17.76805686950684,1739084.20632175,-0.0897674560546875,-0.42706298828125,-0.9676055908203125,1739084.20134375,0.2844634056091309,0.161799818277359,0.01972976326942444,1739084.19159275,-145.2148132324219,35.354736328125,-321.6271057128906,1739084.16773775,0.05270737923912041,-0.1234841539179752,0.427953129693031,0.3340671062469482,0.4937484264373779,0.05751212313771248,-0.01328828930854797,0.00987321138381958,0.09554684162139893,2,0.2134580638272562,-0.05468990932398278,0.01260273396261974,0.9753388387816283,-0.1120626926422119,-0.4150094091892242,-0.9028893113136292,-18.29003143310547,-33.99516296386719,-27.39227294921875,-1,2,1739080.303064542,4,1,1676782827.265931,0,0,0,0,0,0,0,0,0,1739082.575797,0,0.1030579,99.0818,1676782831.147426,0,182416158,0,0,1,1676782831.118168,1,0.82,1
1676782831.202642,3,1676782830.390885,34.04867218582972,-117.8139260803996,216.4357,0.1616617,0.5787297,310.1003659340383,77.97750780409244,10.01197028272048,10.02341396498056,-9999,1676782831.193091,-17.54752349853516,-34.20030975341797,-26.95025634765625,190.1749420166016,178.6917724609375,17.76826667785645,1739084.23992875,-0.080322265625,-0.439208984375,-0.948577880859375,1739084.23495075,-0.1876348704099655,-0.2548344135284424,-0.02558152563869953,1739084.22161175,-144.6235504150391,35.17604064941406,-321.3855895996094,1739084.22748175,0.05554325823520191,-0.1134928326149956,0.4429365235804488,-0.08475334942340851,-0.192054882645607,-0.03128714114427567,0.02250170707702637,-0.003107249736785889,-0.07005846500396729,2,0.2207605401939918,-0.04921962119612508,0.01459269352261006,0.9739760164679269,-0.1023204401135445,-0.4285944402217865,-0.8976844549179077,-17.54752349853516,-34.20030975341797,-26.95025634765625,-1,2,1739080.303064542,4,1,1676782827.265931,0,0,0,0,0,0,0,0,0,1739082.575797,0,0.1030579,99.0818,1676782831.147426,0,182416158,0,0,1,1676782831.118168,1,0.82,1
1676782831.237458,4,1676782830.390885,34.04867218582972,-117.8139260803996,216.4357,0.1616617,0.5787297,310.1003659340383,77.97750780409244,10.01197028272048,10.02341396498056,-9999,1676782831.232846,-18.17221832275391,-34.13112258911133,-27.10162353515625,190.3492431640625,178.8660736083984,17.76848793029785,1739084.27353475,-0.1049041748046875,-0.442352294921875,-0.8740692138671875,1739084.26855575,-0.4343642294406891,-0.2383736819028854,0.05546485632658005,1739084.25162575,-145.3928985595703,35.44677734375,-320.9132080078125,1739084.22748175,0.05554325823520191,-0.1134928326149956,0.4429365235804488,-0.08475334942340851,-0.192054882645607,-0.03128714114427567,0.02250170707702637,-0.003107249736785889,-0.07005846500396729,2,0.2207605401939918,-0.04921962119612508,0.01459269352261006,0.9739760164679269,-0.1023204401135445,-0.4285944402217865,-0.8976844549179077,-17.54752349853516,-34.20030975341797,-26.95025634765625,-1,2,1739080.303064542,4,1,1676782827.265931,0,0,0,0,0,0,0,0,0,1739082.575797,0,0.1030579,99.0818,1676782831.147426,0,182416158,0,0,1,1676782831.118168,1,0.82,1
1676782831.27674,5,1676782830.390885,34.04867218582972,-117.8139260803996,216.4357,0.1616617,0.5787297,310.1003659340383,77.97750780409244,10.01197028272048,10.02341396498056,-9999,1676782831.272863,-18.31433868408203,-33.87798309326172,-27.10372924804688,190.3633728027344,178.8802032470703,17.76870727539062,1739084.30714075,-0.128997802734375,-0.429443359375,-0.872802734375,1739084.30216175,-0.125445544719696,-0.02215510234236717,0.05999596044421196,1739084.28163575,-145.4573822021484,35.51240539550781,-321.8297729492188,1739084.28722575,0.05391902412459434,-0.128412439579757,0.4226317212299583,-0.2941255569458008,-0.1516923606395721,0.02235178463160992,0.02296586334705353,-0.006631851196289062,0.04967570304870605,2,0.2109295185347085,-0.05706974697052633,0.01284941776117343,0.9757492992688043,-0.1167921721935272,-0.4101620316505432,-0.9045035839080811,-18.27796173095703,-33.91023254394531,-27.37222290039062,-1,2,1739080.303064542,4,1,1676782827.265931,0,0,0,0,0,0,0,0,0,1739082.575797,0,0.1030579,99.0818,1676782831.147426,0,182416158,0,0,1,1676782831.118168,1,0.82,1
1676782831.314022,6,1676782830.390885,34.04867218582972,-117.8139260803996,216.4357,0.1616617,0.5787297,310.1003659340383,77.97750780409244,10.01197028272048,10.02341396498056,-9999,1676782831.312585,-18.29375457763672,-33.81571197509766,-27.42849731445312,190.3136444091797,178.8304748535156,17.76891899108887,1739084.34074575,-0.0845489501953125,-0.4140625,-0.8838043212890625,1739084.33576775,0.1616706550121307,-0.0126729179173708,-0.004538292996585369,1739084.34166975,-145.4373474121094,35.61293029785156,-321.8292236328125,1739084.28722575,0.05391902412459434,-0.128412439579757,0.4226317212299583,-0.2941255569458008,-0.1516923606395721,0.02235178463160992,0.02296586334705353,-0.006631851196289062,0.04967570304870605,2,0.2109295185347085,-0.05706974697052633,0.01284941776117343,0.9757492992688043,-0.1167921721935272,-0.4101620316505432,-0.9045035839080811,-18.27796173095703,-33.91023254394531,-27.37222290039062,-1,2,1739080.303064542,4,1,1676782827.265931,0,0,0,0,0,0,0,0,0,1739082.575797,0,0.1030579,99.0818,1676782831.147426,0,182416158,0,0,1,1676782831.118168,1,0.82,1
1676782831.336998,7,1676782830.390885,34.04867218582972,-117.8139260803996,216.4357,0.1616617,0.5787297,310.1003659340383,77.97750780409244,10.01197028272048,10.02341396498056,-9999,1676782831.332408,-18.19191741943359,-34.10217666625977,-27.25946044921875,190.2554168701172,178.7722473144531,17.76901435852051,1739084.37435275,-0.1217193603515625,-0.4339599609375,-0.89691162109375,1739084.36937475,0.04954757913947105,0.04762956872582436,0.09355178475379944,1739084.37168875,-145.5272521972656,35.49839782714844,-321.7260437011719,1739084.34696975,0.05562705109597924,-0.1309222085404336,0.4220584899434741,0.157518208026886,-0.01512332819402218,0.007719033397734165,0.02343520522117615,-0.01510453224182129,0.01416653394699097,2,0.2107157461305447,-0.0581256866854423,0.01343794487792183,0.9757252585860592,-0.1190925762057304,-0.4096391797065735,-0.9044405817985535,-18.29375457763672,-33.81571197509766,-27.42849731445312,-1,2,1739080.303064542,4,1,1676782827.265931,0,0,0,0,0,0,0,0,0,1739082.575797,0,0.1030579,99.0818,1676782831.147426,0,182416158,0,0,1,1676782831.118168,1,0.82,1
1676782831.371974,8,1676782830.390885,34.04867218582972,-117.8139260803996,216.4357,0.1616617,0.5787297,310.1003659340383,77.97750780409244,10.01197028272048,10.02341396498056,-9999,1676782831.352219,-18.39589691162109,-33.96358108520508,-27.01156616210938,190.1213989257812,178.6382293701172,17.76907348632812,1739084.40795875,-0.1157379150390625,-0.41015625,-0.9290771484375,1739084.40297975,-0.1290831565856934,0.05909634381532669,0.1241949200630188,1739084.40170675,-145.7189025878906,35.55471801757812,-321.7637634277344,1739084.34696975,0.05562705109597924,-0.1309222085404336,0.4220584899434741,0.157518208026886,-0.01512332819402218,0.007719033397734165,0.02343520522117615,-0.01510453224182129,0.01416653394699097,2,0.2107157461305447,-0.0581256866854423,0.01343794487792183,0.9757252585860592,-0.1190925762057304,-0.4096391797065735,-0.9044405817985535,-18.29375457763672,-33.81571197509766,-27.42849731445312,-1,2,1739080.303064542,4,1,1676782827.265931,0,0,0,0,0,0,0,0,0,1739082.575797,0,0.1030579,99.0818,1676782831.147426,0,182416158,0,0,1,1676782831.118168,1,0.82,1
1676782831.406677,9,1676782830.390885,34.04867218582972,-117.8139260803996,216.4357,0.1616617,0.5787297,310.1003659340383,77.97750780409244,10.01197028272048,10.02341396498056,-9999,1676782831.392204,-18.68424224853516,-33.53821182250977,-27.3895263671875,189.8606262207031,178.3774566650391,17.76909446716309,1739084.44156375,-0.098358154296875,-0.419097900390625,-0.935028076171875,1739084.43658575,-0.1262298375368118,-0.1585784554481506,0.1642453968524933,1739084.43172375,-145.8627319335938,35.61367797851562,-322.1380004882812,1739084.40671375,0.06156762087751582,-0.1310232668400272,0.4215014856806922,-0.1442631930112839,0.02574488893151283,0.1149846464395523,-0.00242932140827179,-0.00377190113067627,-0.02141654491424561,2,0.2106168007283265,-0.05756102679379406,0.01634501675134148,0.9757356805035517,-0.11921376734972,-0.4091309905052185,-0.9046545624732971,-18.47832489013672,-33.90285873413086,-27.25692749023438,-1,2,1739080.303064542,4,1,1676782827.265931,0,0,0,0,0,0,0,0,0,1739082.575797,0,0.1030579,99.0818,1676782831.147426,0,182416158,0,0,1,1676782831.118168,1,0.82,1
1676782831.442124,10,1676782830.390885,34.04867218582972,-117.8139260803996,216.4357,0.1616617,0.5787297,310.1003659340383,77.97750780409244,10.01197028272048,10.02341396498056,-9999,1676782831.432007,-19.32877349853516,-33.49847030639648,-27.51596069335938,189.5793151855469,178.0961456298828,17.76914978027344,1739084.47516975,-0.1476898193359375,-0.4078369140625,-0.889892578125,1739084.47019075,-0.01497921533882618,-0.1087810769677162,0.2244235128164291,1739084.46174275,-146.6118774414062,36.04692077636719,-321.892578125,1739084.46645775,0.07037889216475694,-0.1428670869189697,0.4135664436921508,-0.03639509528875351,-0.1544452905654907,0.2109368443489075,0.01348027586936951,-0.01059797406196594,0.007697820663452148,2,0.2071198996337787,-0.06260414191436182,0.01970019043383192,0.9761115989267836,-0.130377858877182,-0.4018776416778564,-0.9063641428947449,-19.32877349853516,-33.49847030639648,-27.51596069335938,-1,2,1739080.303064542,4,1,1676782827.265931,0,0,0,0,0,0,0,0,0,1739082.575797,0,0.1030579,99.0818,1676782831.147426,0,182416158,0,0,1,1676782831.118168,1,0.82,1
1676782831.475421,11,1676782830.390885,34.04867218582972,-117.8139260803996,216.4357,0.1616617,0.5787297,310.1003659340383,77.97750780409244,10.01197028272048,10.02341396498056,-9999,1676782831.471781,-19.58512115478516,-33.16890716552734,-27.47360229492188,189.1743011474609,177.6911315917969,17.76913833618164,1739084.50877675,-0.1044769287109375,-0.3729705810546875,-0.9219207763671875,1739084.50379775,0.08984493464231491,-0.07530460506677628,0.1358356028795242,1739084.49176075,-146.7234191894531,35.95220947265625,-321.7342834472656,1739084.46645775,0.07037889216475694,-0.1428670869189697,0.4135664436921508,-0.03639509528875351,-0.1544452905654907,0.2109368443489075,0.01348027586936951,-0.01059797406196594,0.007697820663452148,2,0.2071198996337787,-0.06260414191436182,0.01970019043383192,0.9761115989267836,-0.130377858877182,-0.4018776416778564,-0.9063641428947449,-19.32877349853516,-33.49847030639648,-27.51596069335938,-1,2,1739080.303064542,4,1,1676782827.265931,0,0,0,0,0,0,0,0,0,1739082.575797,0,0.1030579,99.0818,1676782831.147426,0,182416158,0,0,1,1676782831.118168,1,0.82,1
1676782831.508772,12,1676782830.390885,34.04867218582972,-117.8139260803996,216.4357,0.1616617,0.5787297,310.1003659340383,77.97750780409244,10.01197028272048,10.02341396498056,-9999,1676782831.491814,-19.71265411376953,-33.46018218994141,-27.64505004882812,189.1775665283203,177.6943969726562,17.76914596557617,1739084.54238275,-0.0630340576171875,-0.368896484375,-0.8508758544921875,1739084.53740375,-0.1062516048550606,-0.3204011917114258,-0.1371916830539703,1739084.52178075,-146.8783721923828,36.01119995117188,-322.0274658203125,1739084.52620175,0.07970997186681045,-0.153326287213116,0.4149780785861102,-0.01556667499244213,-0.3108119070529938,-0.06299210339784622,0.08243632316589355,0.04059046506881714,-0.02444356679916382,2,0.2082214192635529,-0.06670185525826575,0.0231104253411667,0.9755309698063583,-0.1397636234760284,-0.4031698703765869,-0.9043893814086914,-19.71265411376953,-33.46018218994141,-27.64505004882812,-1,2,1739080.303064542,4,1,1676782827.265931,0,0,0,0,0,0,0,0,0,1739082.575797,0,0.1030579,99.0818,1676782831.147426,0,182416158,0,0,1,1676782831.118168,1,0.82,1
1676782831.542339,13,1676782831.341189,34.0486747927061,-117.813925004475,216.5337,0.07420031,0.1722154,139.4593796323531,80.09476291814367,9.960753217603925,9.392554747904063,-9999,1676782831.531868,-19.56194305419922,-33.0309944152832,-27.33343505859375,189.3877563476562,177.9045867919922,17.76933097839355,1739084.57598775,-0.2232513427734375,-0.423187255859375,-0.9170074462890625,1739084.57100975,-0.217805027961731,0.2204612642526627,0.08390635251998901,1739084.55179875,-146.4617919921875,36.39100646972656,-321.7466430664062,1739084.52620175,0.07970997186681045,-0.153326287213116,0.4149780785861102,-0.01556667499244213,-0.3108119070529938,-0.06299210339784622,0.08243632316589355,0.04059046506881714,-0.02444356679916382,2,0.2082214192635529,-0.06670185525826575,0.0231104253411667,0.9755309698063583,-0.1397636234760284,-0.4031698703765869,-0.9043893814086914,-19.71265411376953,-33.46018218994141,-27.64505004882812,-1,2,1739080.303064542,4,1,1676782827.265931,0,0,0,0,0,0,0,0,0,1739082.575797,0,0.1030579,99.0818,1676782831.147426,0,182416158,0,0,1,1676782831.118168,1,0.82,1
1676782831.575833,14,1676782831.341189,34.0486747927061,-117.813925004475,216.5337,0.07420031,0.1722154,139.4593796323531,80.09476291814367,9.960753217603925,9.392554747904063,-9999,1676782831.571633,-19.76403045654297,-33.16769409179688,-27.2034912109375,189.2787322998047,177.7955627441406,17.76955032348633,1739084.60959375,-0.132965087890625,-0.423614501953125,-0.9892120361328125,1739084.60461475,-0.09209610521793365,-0.3578569293022156,0.1297982037067413,1739084.61183475,-147.2103271484375,36.68148803710938,-322.3134765625,1739084.58594575,0.07705845182028336,-0.154098254687705,0.4045864684489111,-0.1355067938566208,-0.08891597390174866,0.06038365885615349,0.01319801807403564,0.01741793751716614,-0.05349594354629517,2,0.2030761016687552,-0.06763108202554002,0.02216862689742111,0.9765728759817633,-0.1410972028970718,-0.3936386406421661,-0.9083722829818726,-19.68294525146484,-33.24751663208008,-27.314453125,-1,2,1739080.303064542,4,1,1676782827.265931,0,0,0,0,0,0,0,0,0,1739082.575797,0,0.1030579,99.0818,1676782831.147426,0,182416158,0,0,1,1676782831.118168,1,0.82,1
1676782831.606012,15,1676782831.341189,34.0486747927061,-117.813925004475,216.5337,0.07420031,0.1722154,139.4593796323531,80.09476291814367,9.960753217603925,9.392554747904063,-9999,1676782831.591276,-19.82335662841797,-33.06911849975586,-27.54931640625,189.1052551269531,177.6220855712891,17.7696590423584,1739084.64320075,-0.154571533203125,-0.3820953369140625,-0.8904876708984375,1739084.63822175,0.01214428059756756,-0.139457494020462,0.226877361536026,1739084.64185275,-147.5640716552734,36.41917419433594,-321.9119262695312,1739084.58594575,0.07705845182028336,-0.154098254687705,0.4045864684489111,-0.1355067938566208,-0.08891597390174866,0.06038365885615349,0.01319801807403564,0.01741793751716614,-0.05349594354629517,2,0.2030761016687552,-0.06763108202554002,0.02216862689742111,0.9765728759817633,-0.1410972028970718,-0.3936386406421661,-0.9083722829818726,-19.68294525146484,-33.24751663208008,-27.314453125,-1,2,1739080.303064542,4,1,1676782827.265931,0,0,0,0,0,0,0,0,0,1739082.575797,0,0.1030579,99.0818,1676782831.147426,0,182416158,0,0,1,1676782831.118168,1,0.82,1
1676782831.642247,16,1676782831.341189,34.0486747927061,-117.813925004475,216.5337,0.07420031,0.1722154,139.4593796323531,80.09476291814367,9.960753217603925,9.392554747904063,-9999,1676782831.631463,-20.35572052001953,-32.97093200683594,-27.71939086914062,188.6941680908203,177.2109985351562,17.76987838745117,1739084.67680675,-0.1163177490234375,-0.36602783203125,-0.91278076171875,1739084.67182775,0.08058246225118637,-0.02439934946596622,0.08539851754903793,1739084.67187475,-147.7396545410156,36.28364562988281,-322.1634521484375,1739084.64568975,0.08748299462179135,-0.1719215116058056,0.3989198170747137,0.0428285114467144,-0.1245649755001068,0.2087209969758987,0.001866176724433899,0.007548511028289795,0.01826333999633789,2,0.200899357548682,-0.07544007426674341,0.0257073166404363,0.9763643087201189,-0.1576431542634964,-0.3884232044219971,-0.9078964591026306,-20.26758575439453,-32.98494338989258,-27.5196533203125,-1,2,1739080.303064542,4,1,1676782827.265931,0,0,0,0,0,0,0,0,0,1739082.575797,0,0.1030579,99.0818,1676782831.147426,0,182416158,0,0,1,1676782831.118168,1,0.82,1
1676782831.675839,17,1676782831.341189,34.0486747927061,-117.813925004475,216.5337,0.07420031,0.1722154,139.4593796323531,80.09476291814367,9.960753217603925,9.392554747904063,-9999,1676782831.671134,-20.59226226806641,-32.66339492797852,-27.61404418945312,188.6026611328125,177.1194915771484,17.77009963989258,1739084.71041175,-0.150909423828125,-0.3785858154296875,-0.945281982421875,1739084.70543375,-0.03805950284004211,-0.2670620679855347,0.05593117699027061,1739084.70189775,-147.7250366210938,36.83436584472656,-321.9259948730469,1739084.70543375,0.09423416514757108,-0.1811312129638808,0.4001627501695518,-0.04411613568663597,-0.2790946066379547,0.05291569605469704,0.007844895124435425,-0.006397396326065063,-0.06857198476791382,2,0.2018897042431311,-0.07921655990788015,0.02801556941240457,0.9757972441588136,-0.1659107059240341,-0.3895682394504547,-0.9059305787086487,-20.59226226806641,-32.66339492797852,-27.61404418945312,-1,2,1739080.303064542,4,1,1676782827.265931,0,0,0,0,0,0,0,0,0,1739082.575797,0,0.1030579,99.0818,1676782831.147426,0,182416158,0,0,1,1676782831.118168,1,0.82,1
1676782831.716937,18,1676782831.341189,34.0486747927061,-117.813925004475,216.5337,0.07420031,0.1722154,139.4593796323531,80.09476291814367,9.960753217603925,9.392554747904063,-9999,1676782831.710945,-20.68296051025391,-32.61327743530273,-26.77227783203125,188.9002380371094,177.4170684814453,17.77030372619629,1739084.74401775,-0.1651153564453125,-0.383453369140625,-0.8961181640625,1739084.73903975,-0.1028515473008156,-0.3136639297008514,-0.1018209010362625,1739084.73192075,-147.8937683105469,36.69651794433594,-320.7886962890625,1739084.70543375,0.09423416514757108,-0.1811312129638808,0.4001627501695518,-0.04411613568663597,-0.2790946066379547,0.05291569605469704,0.007844895124435425,-0.006397396326065063,-0.06857198476791382,2,0.2018897042431311,-0.07921655990788015,0.02801556941240457,0.9757972441588136,-0.1659107059240341,-0.3895682394504547,-0.9059305787086487,-20.59226226806641,-32.66339492797852,-27.61404418945312,-1,2,1739080.303064542,4,1,1676782827.265931,0,0,0,0,0,0,0,0,0,1739082.575797,0,0.1030579,99.0818,1676782831.147426,0,182416158,0,0,1,1676782831.118168,1,0.82,1
1676782831.742243,19,1676782831.341189,34.0486747927061,-117.813925004475,216.5337,0.07420031,0.1722154,139.4593796323531,80.09476291814367,9.960753217603925,9.392554747904063,-9999,1676782831.731126,-20.93799591064453,-32.62555313110352,-27.01123046875,189.0186614990234,177.5354919433594,17.77041435241699,1739084.77762475,-0.2193756103515625,-0.43084716796875,-0.912506103515625,1739084.77264675,-0.3372331559658051,-0.3208528459072113,0.1267126649618149,1739084.76193975,-148.1295318603516,36.81686401367188,-321.47705078125,1739084.76517775,0.08983606222247063,-0.1984778855739239,0.3935366832136366,-0.2894343733787537,-0.3475339412689209,0.06181218475103378,-0.008248582482337952,-0.03666314482688904,0.006150484085083008,2,0.1987059208555493,-0.08833093172180935,0.02446983953303689,0.9757636478829435,-0.1821048259735107,-0.3834571540355682,-0.9054272174835205,-20.93799591064453,-32.62555313110352,-27.01123046875,-1,2,1739080.303064542,4,1,1676782827.265931,0,0,0,0,0,0,0,0,0,1739082.575797,0,0.1030579,99.0818,1676782831.147426,0,182416158,0,0,1,1676782831.118168,1,0.82,1
1676782831.775523,20,1676782831.341189,34.0486747927061,-117.813925004475,216.5337,0.07420031,0.1722154,139.4593796323531,80.09476291814367,9.960753217603925,9.392554747904063,-9999,1676782831.770693,-21.85799407958984,-32.23903274536133,-26.9971923828125,188.8743743896484,177.3912048339844,17.77063751220703,1739084.811231167,-0.1829681396484375,-0.337554931640625,-0.908233642578125,1739084.806252167,-0.399848073720932,-0.4241419434547424,0.1843538582324982,1739084.79196175,-148.5382080078125,37.19046020507812,-321.1156616210938,1739084.76517775,0.08983606222247063,-0.1984778855739239,0.3935366832136366,-0.2894343733787537,-0.3475339412689209,0.06181218475103378,-0.008248582482337952,-0.03666314482688904,0.006150484085083008,2,0.1987059208555493,-0.08833093172180935,0.02446983953303689,0.9757636478829435,-0.1821048259735107,-0.3834571540355682,-0.9054272174835205,-20.93799591064453,-32.62555313110352,-27.01123046875,-1,2,1739080.303064542,4,1,1676782827.265931,0,0,0,0,0,0,0,0,0,1739082.575797,0,0.1030579,99.0818,1676782831.147426,0,182416158,0,0,1,1676782831.118168,1,0.82,1
1676782831.810063,21,1676782831.341189,34.0486747927061,-117.813925004475,216.5337,0.07420031,0.1722154,139.4593796323531,80.09476291814367,9.960753217603925,9.392554747904063,-9999,1676782831.790427,-21.92430877685547,-32.00521850585938,-27.11669921875,188.8930206298828,177.4098510742188,17.770751953125,1739084.844837167,-0.1987457275390625,-0.3351898193359375,-0.9396820068359375,1739084.839858167,-0.3897533416748047,-0.4695115685462952,-0.06125083938241005,1739084.821984167,-149.0689697265625,37.58515930175781,-321.5529174804688,1739084.824922167,0.0942841455403563,-0.223881424046301,0.3689646576570786,-0.3895193934440613,-0.4858320355415344,0.02781889401376247,0.04438522458076477,0.04633411765098572,0.005279600620269775,2,0.1872618549302988,-0.101099224196279,0.02556651361768553,0.9767591746477995,-0.207074448466301,-0.360649973154068,-0.9094238877296448,-21.92430877685547,-32.00521850585938,-27.11669921875,-1,2,1739080.303064542,4,1,1676782827.265931,0,0,0,0,0,0,0,0,0,1739082.575797,0,0.1030579,99.0818,1676782831.147426,0,182416158,0,0,1,1676782831.118168,1,0.82,1
1676782831.844934,22,1676782831.341189,34.0486747927061,-117.813925004475,216.5337,0.07420031,0.1722154,139.4593796323531,80.09476291814367,9.960753217603925,9.392554747904063,-9999,1676782831.830302,-22.25199127197266,-31.62339401245117,-27.57199096679688,189.3480987548828,177.8649291992188,17.77097511291504,1739084.878442167,-0.212493896484375,-0.3269805908203125,-0.894378662109375,1739084.873464167,-0.1631279438734055,-0.2647770643234253,-0.1958677768707275,1739084.852004167,-149.8034973144531,37.59880065917969,-322.1889038085938,1739084.824922167,0.0942841455403563,-0.223881424046301,0.3689646576570786,-0.3895193934440613,-0.4858320355415344,0.02781889401376247,0.04438522458076477,0.04633411765098572,0.005279600620269775,2,0.1872618549302988,-0.101099224196279,0.02556651361768553,0.9767591746477995,-0.207074448466301,-0.360649973154068,-0.9094238877296448,-21.92430877685547,-32.00521850585938,-27.11669921875,-1,2,1739080.303064542,4,1,1676782827.265931,0,0,0,0,0,0,0,0,0,1739082.575797,0,0.1030579,99.0818,1676782831.147426,0,182416158,0,0,1,1676782831.118168,1,0.82,1
1676782831.87637,23,1676782831.341189,34.0486747927061,-117.813925004475,216.5337,0.07420031,0.1722154,139.4593796323531,80.09476291814367,9.960753217603925,9.392554747904063,-9999,1676782831.870182,-22.45406341552734,-31.87518692016602,-27.670166015625,189.9102172851562,178.4270477294922,17.77119064331055,1739084.912049167,-0.2218780517578125,-0.3772430419921875,-0.8884429931640625,1739084.907071167,0.1310136765241623,0.009885387495160103,-0.1751081645488739,1739084.882021167,-150.0187683105469,37.77021789550781,-321.7100219726562,1739084.884666167,0.08270828546874451,-0.2426758201280629,0.3536054681158087,-0.02825898304581642,-0.1561509221792221,-0.2284422963857651,0.01841756701469421,0.01914924383163452,0.03506183624267578,2,0.179366702189752,-0.1118336665222205,0.01912789449598995,0.9772179858942921,-0.2254335582256317,-0.3462824523448944,-0.910641610622406,-22.75086212158203,-31.70859909057617,-27.26300048828125,-1,2,1739080.303064542,4,1,1676782827.265931,0,0,0,0,0,0,0,0,0,1739082.575797,0,0.1030579,99.0818,1676782831.147426,0,182416158,0,0,1,1676782831.118168,1,0.82,1
1676782831.915603,24,1676782831.341189,34.0486747927061,-117.813925004475,216.5337,0.07420031,0.1722154,139.4593796323531,80.09476291814367,9.960753217603925,9.392554747904063,-9999,1676782831.909935,-22.42383575439453,-32.29321670532227,-27.03720092773438,190.0604095458984,178.5772399902344,17.77140235900879,1739084.945655167,-0.2711029052734375,-0.3884735107421875,-0.9648895263671875,1739084.940676167,-0.1998292207717896,-0.3980831801891327,0.1142804995179176,1739084.942060167,-149.5599060058594,37.07746887207031,-321.3756713867188,1739084.884666167,0.08270828546874451,-0.2426758201280629,0.3536054681158087,-0.02825898304581642,-0.1561509221792221,-0.2284422963857651,0.01841756701469421,0.01914924383163452,0.03506183624267578,2,0.179366702189752,-0.1118336665222205,0.01912789449598995,0.9772179858942921,-0.2254335582256317,-0.3462824523448944,-0.910641610622406,-22.75086212158203,-31.70859909057617,-27.26300048828125,-1,2,1739080.303064542,4,1,1676782827.265931,0,0,0,0,0,0,0,0,0,1739082.575797,0,0.1030579,99.0818,1676782831.147426,0,182416158,0,0,1,1676782831.118168,1,0.82,1
1676782831.944387,25,1676782831.341189,34.0486747927061,-117.813925004475,216.5337,0.07420031,0.1722154,139.4593796323531,80.09476291814367,9.960753217603925,9.392554747904063,-9999,1676782831.930089,-22.86569976806641,-32.02975082397461,-26.984130859375,190.0686187744141,178.58544921875,17.77151298522949,1739084.979261167,-0.1737823486328125,-0.316497802734375,-0.8897705078125,1739084.974282167,-0.2576182186603546,-0.177436575293541,-0.03326208144426346,1739084.972081167,-149.6849060058594,37.60032653808594,-321.8268432617188,1739084.944410167,0.0774670582502559,-0.2520728380854722,0.3554018064624922,-0.2463049292564392,-0.3872210681438446,0.1163383424282074,-0.03784221410751343,-0.04847157001495361,-0.07477152347564697,2,0.1800245323994764,-0.1168399068788541,0.0156082308827431,0.9765736185637139,-0.2338252663612366,-0.3479670882225037,-0.9078792333602905,-22.42383575439453,-32.29321670532227,-27.03720092773438,-1,2,1739080.303064542,4,1,1676782827.265931,0,0,0,0,0,0,0,0,0,1739082.575797,0,0.1030579,99.0818,1676782831.147426,0,182416158,0,0,1,1676782831.118168,1,0.82,1
1676782831.979316,26,1676782831.341189,34.0486747927061,-117.813925004475,216.5337,0.07420031,0.1722154,139.4593796323531,80.09476291814367,9.960753217603925,9.392554747904063,-9999,1676782831.970025,-22.84703826904297,-31.62463760375977,-27.03732299804688,190.3401641845703,178.8569946289062,17.7717342376709,1739085.012866167,-0.277923583984375,-0.3702545166015625,-0.9236907958984375,1739085.007888167,-0.1528915464878082,-0.5023877620697021,0.02810353972017765,1739085.002100167,-150.0491943359375,37.78089904785156,-321.4481201171875,1739085.004154167,0.07374500645448766,-0.2692793119524963,0.3412090567255697,-0.1554665714502335,-0.5170617699623108,0.0009469457436352968,0.01968187093734741,-0.02804425358772278,-0.04371148347854614,2,0.1730038105878393,-0.1259924889025715,0.01322580087496622,0.9767397434048212,-0.2506999671459198,-0.334626704454422,-0.9083911776542664,-22.84703826904297,-31.62463760375977,-27.03732299804688,-1,2,1739080.303064542,4,1,1676782827.265931,0,0,0,0,0,0,0,0,0,1739082.575797,0,0.1030579,99.0818,1676782831.147426,0,182416158,0,0,1,1676782831.118168,1,0.82,1
1676782832.009245,27,1676782831.341189,34.0486747927061,-117.813925004475,216.5337,0.07420031,0.1722154,139.4593796323531,80.09476291814367,9.960753217603925,9.392554747904063,-9999,1676782831.989717,-23.28774261474609,-31.40000152587891,-27.26678466796875,190.3731689453125,178.8899993896484,17.77184677124023,1739085.046473167,-0.2765655517578125,-0.32330322265625,-0.9000396728515625,1739085.041495167,-0.1626706719398499,-0.2632436156272888,0.1656880378723145,1739085.032118167,-150.6511840820312,37.80828857421875,-321.5466918945312,1739085.004154167,0.07374500645448766,-0.2692793119524963,0.3412090567255697,-0.1554665714502335,-0.5170617699623108,0.0009469457436352968,0.01968187093734741,-0.02804425358772278,-0.04371148347854614,2,0.1730038105878393,-0.1259924889025715,0.01322580087496622,0.9767397434048212,-0.2506999671459198,-0.334626704454422,-0.9083911776542664,-22.84703826904297,-31.62463760375977,-27.03732299804688,-1,2,1739080.303064542,4,1,1676782827.265931,0,0,0,0,0,0,0,0,0,1739082.575797,0,0.1030579,99.0818,1676782831.147426,0,182416158,0,0,1,1676782831.118168,1,0.82,1
1676782832.044071,28,1676782831.341189,34.0486747927061,-117.813925004475,216.5337,0.07420031,0.1722154,139.4593796323531,80.09476291814367,9.960753217603925,9.392554747904063,-9999,1676782832.029384,-23.90178680419922,-31.05856323242188,-27.35708618164062,190.2540435791016,178.7708740234375,17.77206611633301,1739085.080079167,-0.2952728271484375,-0.3124542236328125,-0.9048309326171875,1739085.075100167,-0.2777282893657684,-0.2994072139263153,0.05295349657535553,1739085.062136167,-151.2126922607422,38.38555908203125,-321.769287109375,1739085.063898167,0.07732771255389526,-0.2911420768778771,0.3295365400775154,-0.2386832386255264,-0.3311039805412292,0.04728369787335396,0.06611102819442749,0.03634253144264221,-0.009489536285400391,2,0.1676987572258007,-0.1367127568324342,0.01395232235568944,0.9762131432017772,-0.271601140499115,-0.323604553937912,-0.9063735008239746,-23.90178680419922,-31.05856323242188,-27.35708618164062,-1,2,1739080.303064542,4,1,1676782827.265931,0,0,0,0,0,0,0,0,0,1739082.575797,0,0.1030579,99.0818,1676782831.147426,0,182416158,0,0,1,1676782831.118168,1,0.82,1
1676782832.078749,29,1676782831.341189,34.0486747927061,-117.813925004475,216.5337,0.07420031,0.1722154,139.4593796323531,80.09476291814367,9.960753217603925,9.392554747904063,-9999,1676782832.069123,-24.25354766845703,-30.72065734863281,-27.73526000976562,190.3076477050781,178.8244781494141,17.77228355407715,1739085.113685167,-0.311431884765625,-0.302886962890625,-0.91973876953125,1739085.108706167,-0.3094137907028198,-0.1745201349258423,0.08325760811567307,1739085.092157167,-151.3038940429688,38.56671142578125,-322.0957641601562,1739085.063898167,0.07732771255389526,-0.2911420768778771,0.3295365400775154,-0.2386832386255264,-0.3311039805412292,0.04728369787335396,0.06611102819442749,0.03634253144264221,-0.009489536285400391,2,0.1676987572258007,-0.1367127568324342,0.01395232235568944,0.9762131432017772,-0.271601140499115,-0.323604553937912,-0.9063735008239746,-23.90178680419922,-31.05856323242188,-27.35708618164062,-1,2,1739080.303064542,4,1,1676782827.265931,0,0,0,0,0,0,0,0,0,1739082.575797,0,0.1030579,99.0818,1676782831.147426,0,182416158,0,0,1,1676782831.118168,1,0.82,1
1676782832.116827,30,1676782831.341189,34.0486747927061,-117.813925004475,216.5337,0.07420031,0.1722154,139.4593796323531,80.09476291814367,9.960753217603925,9.392554747904063,-9999,1676782832.109042,-24.50371551513672,-30.52767181396484,-27.31076049804688,190.2264556884766,178.7432861328125,17.77250099182129,1739085.147291167,-0.2971649169921875,-0.3099212646484375,-0.875732421875,1739085.142312167,-0.1887478083372116,-0.1713605672121048,0.1666675508022308,1739085.122173167,-151.5413818359375,38.77346801757812,-321.6702575683594,1739085.123642167,0.07599873933660244,-0.3049163795194002,0.3111965506896181,-0.31288743019104,-0.2293387800455093,0.1033157259225845,-0.009937077760696411,0.002914190292358398,-0.03461712598800659,2,0.1587628531662259,-0.1441061319526149,0.01357771780587819,0.9766491083490927,-0.2857935130596161,-0.3061979413032532,-0.9080555438995361,-24.34432220458984,-30.66033935546875,-27.29763793945312,-1,2,1739080.303064542,4,1,1676782827.265931,0,0,0,0,0,0,0,0,0,1739082.575797,0,0.1030579,99.0818,1676782831.147426,0,182416158,0,0,1,1676782831.118168,1,0.82,1
1676782832.143616,31,1676782831.341189,34.0486747927061,-117.813925004475,216.5337,0.07420031,0.1722154,139.4593796323531,80.09476291814367,9.960753217603925,9.392554747904063,-9999,1676782832.129007,-24.65956878662109,-30.5540657043457,-27.7926025390625,190.0645141601562,178.5813446044922,17.77260780334473,1739085.180898167,-0.2715911865234375,-0.2622833251953125,-0.92510986328125,1739085.175919167,0.06623228639364243,-0.05430371686816216,0.06126096099615097,1739085.152191167,-152.0093536376953,38.6627197265625,-322.2794799804688,1739085.123642167,0.07599873933660244,-0.3049163795194002,0.3111965506896181,-0.31288743019104,-0.2293387800455093,0.1033157259225845,-0.009937077760696411,0.002914190292358398,-0.03461712598800659,2,0.1587628531662259,-0.1441061319526149,0.01357771780587819,0.9766491083490927,-0.2857935130596161,-0.3061979413032532,-0.9080555438995361,-24.34432220458984,-30.66033935546875,-27.29763793945312,-1,2,1739080.303064542,4,1,1676782827.265931,0,0,0,0,0,0,0,0,0,1739083.576373,0,0.1030579,99.0818,1676782831.147426,0,182416158,0,0,1,1676782831.118168,1,0.82,1
1676782832.178409,32,1676782831.341189,34.0486747927061,-117.813925004475,216.5337,0.07420031,0.1722154,139.4593796323531,80.09476291814367,9.960753217603925,9.392554747904063,-9999,1676782832.168855,-24.58223724365234,-30.37893676757812,-27.59100341796875,190.0613708496094,178.5782012939453,17.77282333374023,1739085.214503167,-0.318603515625,-0.2593841552734375,-0.9713592529296875,1739085.209525167,-0.08149805665016174,-0.3893195390701294,-0.09828875213861465,1739085.212224167,-151.8920745849609,39.17588806152344,-321.8601684570312,1739085.183386167,0.08177819758110472,-0.3143549192508561,0.3032668065093299,0.04565632343292236,-0.1734850406646729,0.01450122520327568,0.0209992527961731,0.03606623411178589,-0.02739924192428589,2,0.1553914769601593,-0.1485070754384035,0.01628581956936825,0.976490630248731,-0.2950928807258606,-0.2986395359039307,-0.9075982570648193,-24.56899261474609,-30.42623901367188,-27.68646240234375,-1,2,1739080.303064542,4,1,1676782827.265931,0,0,0,0,0,0,0,0,0,1739083.576373,0,0.1030579,99.0818,1676782831.147426,0,182416158,0,0,1,1676782831.118168,1,0.82,1
1676782832.213216,33,1676782831.341189,34.0486747927061,-117.813925004475,216.5337,0.07420031,0.1722154,139.4593796323531,80.09476291814367,9.960753217603925,9.392554747904063,-9999,1676782832.20869,-24.67011260986328,-30.22637176513672,-27.34298706054688,190.6484069824219,179.1652374267578,17.77304267883301,1739085.248109167,-0.2196502685546875,-0.30816650390625,-0.929168701171875,1739085.243130167,-0.02006452158093452,-0.1248908042907715,-0.2866227030754089,1739085.242239167,-151.8277435302734,39.19869995117188,-321.6486206054688,1739085.243130167,0.07228645276449659,-0.3281539146660625,0.3032569799143822,-0.02612311206758022,-0.136922150850296,-0.2896369993686676,0.09726211428642273,0.02615389227867126,0.01824992895126343,2,0.1547568549925863,-0.1559773080921421,0.01058465619268778,0.9755046969182368,-0.3075892925262451,-0.2986301481723785,-0.9034428000450134,-24.67011260986328,-30.22637176513672,-27.34298706054688,-1,2,1739080.303064542,4,1,1676782827.265931,0,0,0,0,0,0,0,0,0,1739083.576373,0,0.1030579,99.0818,1676782831.147426,0,182416158,0,0,1,1676782831.118168,1,0.82,1
1676782832.247957,34,1676782831.341189,34.0486747927061,-117.813925004475,216.5337,0.07420031,0.1722154,139.4593796323531,80.09476291814367,9.960753217603925,9.392554747904063,-9999,1676782832.228554,-24.92229461669922,-30.62831878662109,-26.80392456054688,190.9177398681641,179.4345703125,17.77314949035645,1739085.281715167,-0.421234130859375,-0.407623291015625,-0.905242919921875,1739085.276736167,0.1723656505346298,-0.3910258114337921,0.1342763155698776,1739085.272254167,-151.9043273925781,38.91593933105469,-321.4219055175781,1739085.243130167,0.07228645276449659,-0.3281539146660625,0.3032569799143822,-0.02612311206758022,-0.136922150850296,-0.2896369993686676,0.09726211428642273,0.02615389227867126,0.01824992895126343,2,0.1547568549925863,-0.1559773080921421,0.01058465619268778,0.9755046969182368,-0.3075892925262451,-0.2986301481723785,-0.9034428000450134,-24.67011260986328,-30.22637176513672,-27.34298706054688,-1,2,1739080.303064542,4,1,1676782827.265931,0,0,0,0,0,0,0,0,0,1739083.576373,0,0.1030579,99.0818,1676782831.147426,0,182416158,0,0,1,1676782831.118168,1,0.82,1
1676782832.278016,35,1676782831.341189,34.0486747927061,-117.813925004475,216.5337,0.07420031,0.1722154,139.4593796323531,80.09476291814367,9.960753217603925,9.392554747904063,-9999,1676782832.2684,-25.29219818115234,-30.53110504150391,-26.91119384765625,190.6466369628906,179.1634674072266,17.77337265014648,1739085.315322167,-0.30072021484375,-0.28460693359375,-0.8430328369140625,1739085.310343167,0.3408489227294922,-0.09015865623950958,0.1394255310297012,1739085.302270167,-152.5647888183594,38.91349792480469,-321.3203125,1739085.302874167,0.07680651566282908,-0.3477027246977609,0.311144828933141,0.3366440236568451,-0.169907808303833,0.1784723401069641,-0.03661456704139709,-0.02525699138641357,0.06995707750320435,2,0.1590584797648095,-0.1649026148351586,0.01057611449717649,0.9733424890289346,-0.3243778944015503,-0.3061487078666687,-0.8950150609016418,-25.29219818115234,-30.53110504150391,-26.91119384765625,-1,2,1739080.303064542,4,1,1676782827.265931,0,0,0,0,0,0,0,0,0,1739083.576373,0,0.1030579,99.0818,1676782831.147426,0,182416158,0,0,1,1676782831.118168,1,0.82,1
1676782832.317262,36,1676782831.341189,34.0486747927061,-117.813925004475,216.5337,0.07420031,0.1722154,139.4593796323531,80.09476291814367,9.960753217603925,9.392554747904063,-9999,1676782832.308288,-25.35507965087891,-30.72974014282227,-26.25625610351562,190.4567565917969,178.9735870361328,17.77359008789062,1739085.348927167,-0.246856689453125,-0.311279296875,-0.9019927978515625,1739085.343949167,0.1081461757421494,-0.1694228500127792,-0.02736051753163338,1739085.332287167,-152.5338897705078,38.45954895019531,-320.9605102539062,1739085.302874167,0.07680651566282908,-0.3477027246977609,0.311144828933141,0.3366440236568451,-0.169907808303833,0.1784723401069641,-0.03661456704139709,-0.02525699138641357,0.06995707750320435,2,0.1590584797648095,-0.1649026148351586,0.01057611449717649,0.9733424890289346,-0.3243778944015503,-0.3061487078666687,-0.8950150609016418,-25.29219818115234,-30.53110504150391,-26.91119384765625,-1,2,1739080.303064542,4,1,1676782827.265931,0,0,0,0,0,0,0,0,0,1739083.576373,0,0.1030579,99.0818,1676782831.147426,0,182416158,0,0,1,1676782831.118168,1,0.82,1
1676782832.349092,37,1676782831.341189,34.0486747927061,-117.813925004475,216.5337,0.07420031,0.1722154,139.4593796323531,80.09476291814367,9.960753217603925,9.392554747904063,-9999,1676782832.348224,-25.43163299560547,-30.78189849853516,-25.96969604492188,190.4993896484375,179.0162200927734,17.77380561828613,1739085.382533167,-0.396514892578125,-0.351806640625,-0.8211822509765625,1739085.377555167,0.1864143460988998,-0.09424421191215515,0.01628869213163853,1739085.362304167,-152.6736755371094,38.54055786132812,-320.3487548828125,1739085.362618167,0.08257907596991917,-0.3567613134525435,0.3214328793132037,0.1185004040598869,-0.1247707232832909,-0.02831758372485638,0.05134043097496033,-0.004813432693481445,0.0541873574256897,2,0.1645817930554313,-0.1684995621348578,0.01172920883455869,0.971793733033028,-0.3313544690608978,-0.3159263730049133,-0.8890414834022522,-25.39165496826172,-30.85848236083984,-25.95156860351562,-1,2,1739080.303064542,4,1,1676782827.265931,0,0,0,0,0,0,0,0,0,1739083.576373,0,0.1030579,99.0818,1676782831.147426,0,182416158,0,0,1,1676782831.118168,1,0.82,1
1676782832.382664,38,1676782831.341189,34.0486747927061,-117.813925004475,216.5337,0.07420031,0.1722154,139.4593796323531,80.09476291814367,9.960753217603925,9.392554747904063,-9999,1676782832.368197,-25.20676422119141,-30.89815521240234,-25.68356323242188,190.4647064208984,178.9815368652344,17.7739086151123,1739085.416139167,-0.2909698486328125,-0.2965850830078125,-0.8892822265625,1739085.411160167,-0.005692506674677134,0.3495641350746155,-0.05394366011023521,1739085.392321167,-152.4800262451172,38.61050415039062,-320.4475708007812,1739085.362618167,0.08257907596991917,-0.3567613134525435,0.3214328793132037,0.1185004040598869,-0.1247707232832909,-0.02831758372485638,0.05134043097496033,-0.004813432693481445,0.0541873574256897,2,0.1645817930554313,-0.1684995621348578,0.01172920883455869,0.971793733033028,-0.3313544690608978,-0.3159263730049133,-0.8890414834022522,-25.39165496826172,-30.85848236083984,-25.95156860351562,-1,2,1739080.303064542,4,1,1676782827.265931,0,0,0,0,0,0,0,0,0,1739083.576373,0,0.1030579,99.0818,1676782831.147426,0,182416158,0,0,1,1676782831.118168,1,0.82,1
1676782832.412565,39,1676782831.341189,34.0486747927061,-117.813925004475,216.5337,0.07420031,0.1722154,139.4593796323531,80.09476291814367,9.960753217603925,9.392554747904063,-9999,1676782832.407683,-25.13191986083984,-31.0952033996582,-25.56472778320312,190.4923858642578,179.0092163085938,17.77411079406738,1739085.449746167,-0.316375732421875,-0.3567657470703125,-0.8551025390625,1739085.444767167,-0.04555976018309593,0.01375522650778294,0.07812090218067169,1739085.422339167,-151.9973449707031,38.32917785644531,-320.5895080566406,1739085.422363167,0.08339858550401572,-0.3515006292872247,0.3276099997541554,-0.1477158814668655,0.08978476375341415,-0.03799362108111382,0.06667166948318481,0.02284607291221619,-0.07245683670043945,2,0.1676131402551943,-0.1656631183909935,0.01200750390000921,0.9717599235218786,-0.3259947896003723,-0.3217810690402985,-0.8889231085777283,-24.89743804931641,-31.07253646850586,-26.07559204101562,-1,2,1739080.303064542,4,1,1676782827.265931,0,0,0,0,0,0,0,0,0,1739083.576373,0,0.1030579,99.0818,1676782831.147426,0,182416158,0,0,1,1676782831.118168,1,0.82,1
1676782832.447339,40,1676782831.341189,34.0486747927061,-117.813925004475,216.5337,0.07420031,0.1722154,139.4593796323531,80.09476291814367,9.960753217603925,9.392554747904063,-9999,1676782832.42779,-25.00623321533203,-30.86659622192383,-26.09799194335938,190.3873291015625,178.9041595458984,17.77422714233398,1739085.483352167,-0.3037872314453125,-0.3204345703125,-0.911285400390625,1739085.478373167,-0.1832286715507507,0.09338214248418808,0.06781819462776184,1739085.482374167,-152.1706390380859,38.90754699707031,-321.4105834960938,1739085.422363167,0.08339858550401572,-0.3515006292872247,0.3276099997541554,-0.1477158814668655,0.08978476375341415,-0.03799362108111382,0.06667166948318481,0.02284607291221619,-0.07245683670043945,2,0.1676131402551943,-0.1656631183909935,0.01200750390000921,0.9717599235218786,-0.3259947896003723,-0.3217810690402985,-0.8889231085777283,-24.89743804931641,-31.07253646850586,-26.07559204101562,-1,2,1739080.303064542,4,1,1676782827.265931,0,0,0,0,0,0,0,0,0,1739083.576373,0,0.1030579,99.0818,1676782831.147426,0,182416158,0,0,1,1676782831.118168,1,0.82,1
1676782832.481955,41,1676782832.290846,34.04867935393418,-117.8139255339918,216.5424,0.07195503,0.06706734,126.65753572697,38.69444021758344,9.426692165159752,8.085035169493873,-9999,1676782832.471538,-25.15050506591797,-30.72859191894531,-26.50704956054688,190.2567138671875,178.7735443115234,17.77445983886719,1739085.516957167,-0.2859649658203125,-0.32489013671875,-0.84161376953125,1739085.511979167,0.2280715107917786,0.0140409842133522,0.07554136216640472,1739085.512393167,-152.5524139404297,38.72715759277344,-320.9719848632812,1739085.482107167,0.08452579696571709,-0.3495718805140974,0.3201868290055006,-0.2038826644420624,0.0688304677605629,0.06399388611316681,0.02000463008880615,-0.004408955574035645,-0.01898139715194702,2,0.1640947164514083,-0.1648878046058118,0.01337823548749068,0.972474076235171,-0.3250888288021088,-0.3147439062595367,-0.8917698860168457,-24.97441864013672,-30.58234405517578,-26.7216796875,-1,2,1739080.303064542,4,1,1676782827.265931,0,0,0,0,0,0,0,0,0,1739083.576373,0,0.1030579,99.0818,1676782831.147426,0,182416158,0,0,1,1676782831.118168,1,0.82,1
1676782832.517031,42,1676782832.290846,34.04867935393418,-117.8139255339918,216.5424,0.07195503,0.06706734,126.65753572697,38.69444021758344,9.426692165159752,8.085035169493873,-9999,1676782832.507347,-25.19152069091797,-30.74184417724609,-25.92657470703125,189.9560699462891,178.472900390625,17.77469062805176,1739085.550563167,-0.3408050537109375,-0.33251953125,-1.015625,1739085.545585167,0.03655774518847466,-0.1250513941049576,0.1131185665726662,1739085.542415167,-152.4297180175781,38.66654968261719,-320.1445922851562,1739085.541851167,0.09186750718262829,-0.350838820546146,0.324914289138411,0.1332284659147263,-0.1082405298948288,0.114669032394886,-0.03049781918525696,-0.02725380659103394,-0.1170689463615417,2,0.1670013605664432,-0.1647286212879014,0.0164197191687418,0.9719596146524179,-0.325703352689743,-0.319227546453476,-0.8899500370025635,-25.19152069091797,-30.74184417724609,-25.92657470703125,-1,2,1739080.303064542,4,1,1676782827.265931,0,0,0,0,0,0,0,0,0,1739083.576373,0,0.1030579,99.0818,1676782831.147426,0,182416158,0,0,1,1676782831.118168,1,0.82,1
1676782832.575048,43,1676782832.290846,34.04867935393418,-117.8139255339918,216.5424,0.07195503,0.06706734,126.65753572697,38.69444021758344,9.426692165159752,8.085035169493873,-9999,1676782832.567076,-25.83057403564453,-30.25343704223633,-26.47848510742188,190.0758209228516,178.5926513671875,17.7750358581543,1739085.584170167,-0.3939971923828125,-0.33197021484375,-0.862274169921875,1739085.579192167,-0.6661173105239868,-0.1956706941127777,0.1052388027310371,1739085.572434167,-152.6788482666016,38.73599243164062,-320.4093017578125,1739085.541851167,0.09186750718262829,-0.350838820546146,0.324914289138411,0.1332284659147263,-0.1082405298948288,0.114669032394886,-0.03049781918525696,-0.02725380659103394,-0.1170689463615417,2,0.1670013605664432,-0.1647286212879014,0.0164197191687418,0.9719596146524179,-0.325703352689743,-0.319227546453476,-0.8899500370025635,-25.19152069091797,-30.74184417724609,-25.92657470703125,-1,2,1739080.303064542,4,1,1676782827.265931,0,0,0,0,0,0,0,0,0,1739083.576373,0,0.1030579,99.0818,1676782831.147426,0,182416158,0,0,1,1676782831.118168,1,0.82,1
1676782832.581788,44,1676782832.290846,34.04867935393418,-117.8139255339918,216.5424,0.07195503,0.06706734,126.65753572697,38.69444021758344,9.426692165159752,8.085035169493873,-9999,1676782832.567076,-25.83057403564453,-30.25343704223633,-26.47848510742188,190.0758209228516,178.5926513671875,17.7750358581543,1739085.615286167,-0.2922515869140625,-0.27679443359375,-0.8565521240234375,1739085.610307167,-0.4502891302108765,0.02104856073856354,0.01881709694862366,1739085.602454167,-153.0029602050781,39.22412109375,-320.8366088867188,1739085.601595167,0.08603168722272715,-0.3603583311779093,0.2961973375833842,-0.6011649370193481,-0.05796629190444946,0.02010135725140572,0.04681879281997681,-0.002075374126434326,-0.001722872257232666,2,0.1526568245664421,-0.1708375446861871,0.01542455204277854,0.9732792577457815,-0.3372546136379242,-0.2918852567672729,-0.8950208425521851,-25.83057403564453,-30.25343704223633,-26.47848510742188,-1,2,1739080.303064542,4,1,1676782827.265931,0,0,0,0,0,0,0,0,0,1739083.576373,0,0.1030579,99.0818,1676782831.147426,0,182416158,0,0,1,1676782831.118168,1,0.82,1
1676782832.641352,45,1676782832.290846,34.04867935393418,-117.8139255339918,216.5424,0.07195503,0.06706734,126.65753572697,38.69444021758344,9.426692165159752,8.085035169493873,-9999,1676782832.626922,-25.48528289794922,-30.20115661621094,-26.91915893554688,189.6614685058594,178.1782989501953,17.77536392211914,1739085.675030167,-0.3495941162109375,-0.274658203125,-0.8764495849609375,1739085.670051167,0.1617066115140915,0.84848952293396,0.2283066660165787,1739085.662498167,-152.5829620361328,39.20135498046875,-321.2199096679688,1739085.661339167,0.08865065777567789,-0.3406273039926619,0.2872041460228343,0.1917401850223541,0.757865309715271,0.1966707855463028,-0.03440293669700623,-0.001228183507919312,0.08719635009765625,2,0.1483329550601371,-0.1613325929391976,0.01898827949235188,0.9755042554247053,-0.3203944265842438,-0.283271998167038,-0.9039382338523865,-25.48528289794922,-30.20115661621094,-26.91915893554688,-1,2,1739080.303064542,4,1,1676782827.265931,0,0,0,0,0,0,0,0,0,1739083.576373,0,0.1030579,99.0818,1676782831.147426,0,182416158,0,0,1,1676782831.118168,1,0.82,1
1676782832.701123,46,1676782832.290846,34.04867935393418,-117.8139255339918,216.5424,0.07195503,0.06706734,126.65753572697,38.69444021758344,9.426692165159752,8.085035169493873,-9999,1676782832.686709,-24.66852569580078,-29.79340744018555,-28.75909423828125,188.7183990478516,177.2352294921875,17.77568626403809,1739085.734774167,-0.232421875,-0.2804412841796875,-1.057220458984375,1739085.729796167,-0.5192759037017822,0.1751723438501358,0.04327183961868286,1739085.722529167,-151.8496246337891,39.68701171875,-323.3241882324219,1739085.721083167,0.09809322349701076,-0.3042803078112221,0.2768076162291634,-0.5012206435203552,0.3756482899188995,0.0878484770655632,0.02436169981956482,-0.008085936307907104,-0.08979350328445435,2,0.1435639465212763,-0.1432384231573652,0.02711364079975465,0.978844706130949,-0.2882014214992523,-0.2732861936092377,-0.9177442789077759,-24.66852569580078,-29.79340744018555,-28.75909423828125,-1,2,1739080.303064542,4,1,1676782827.265931,0,0,0,0,0,0,0,0,0,1739083.576373,0,0.1030579,99.0818,1676782831.147426,0,182416158,0,0,1,1676782831.118168,1,0.82,1
1676782832.761067,47,1676782832.290846,34.04867935393418,-117.8139255339918,216.5424,0.07195503,0.06706734,126.65753572697,38.69444021758344,9.426692165159752,8.085035169493873,-9999,1676782832.746449,-24.54160308837891,-29.17103958129883,-29.2681884765625,188.5275573730469,177.0443878173828,17.77601432800293,1739085.794518167,-0.3177947998046875,-0.258087158203125,-0.861358642578125,1739085.789540167,0.6409408450126648,0.5372019410133362,0.1021753698587418,1739085.782562167,-151.5563507080078,40.24534606933594,-323.64013671875,1739085.780827167,0.09775862490012784,-0.2912936385609445,0.2646470311242871,0.4911372363567352,0.4372879266738892,0.09212761372327805,-0.03266724944114685,0.01318597793579102,0.110224187374115,2,0.1374140254711526,-0.1373136608876699,0.02879435533645341,0.9805269876589973,-0.277193009853363,-0.2615686058998108,-0.9245246648788452,-24.54160308837891,-29.17103958129883,-29.2681884765625,-1,2,1739080.303064542,4,1,1676782827.265931,0,0,0,0,0,0,0,0,0,1739083.576373,0,0.1030579,99.0818,1676782831.147426,0,182416158,0,0,1,1676782831.118168,1,0.82,1
1676782832.820432,48,1676782832.290846,34.04867935393418,-117.8139255339918,216.5424,0.07195503,0.06706734,126.65753572697,38.69444021758344,9.426692165159752,8.085035169493873,-9999,1676782832.806168,-23.82593536376953,-30.20819854736328,-28.87408447265625,187.6341400146484,176.1509704589844,17.77635383605957,1739085.854259125,-0.220611572265625,-0.297882080078125,-0.984649658203125,1739085.849280125,0.536316990852356,0.4476827085018158,-0.02314100600779057,1739085.842595125,-151.0144958496094,39.13909912109375,-323.3560791015625,1739085.840568125,0.1146241051061343,-0.2623026585412973,0.3033208720299683,0.6308870911598206,0.4813390672206879,0.007741914130747318,0.00155717134475708,0.01953154802322388,-0.04010045528411865,2,0.1569412440157414,-0.1204826848179294,0.0364117986800151,0.9795548199811865,-0.2474678158760071,-0.2986911237239838,-0.9217067360877991,-23.82593536376953,-30.20819854736328,-28.87408447265625,-1,2,1739080.303064542,4,1,1676782827.265931,0,0,0,0,0,0,0,0,0,1739083.576373,0,0.1030579,99.0818,1676782831.147426,0,182416158,0,0,1,1676782831.118168,1,0.82,1
1676782832.880277,49,1676782832.290846,34.04867935393418,-117.8139255339918,216.5424,0.07195503,0.06706734,126.65753572697,38.69444021758344,9.426692165159752,8.085035169493873,-9999,1676782832.865944,-23.47570037841797,-30.85477447509766,-28.35061645507812,187.3730010986328,175.8898315429688,17.77667999267578,1739085.914003125,-0.23724365234375,-0.290863037109375,-0.93743896484375,1739085.909024125,0.164251521229744,0.1472469717264175,0.01264335680752993,1739085.902634125,-150.5079498291016,38.77604675292969,-323.0717468261719,1739085.900312125,0.1184839311332724,-0.244236670752517,0.3200809366183507,0.1333955973386765,0.185401663184166,0.02551909163594246,-0.003620415925979614,0.0004038214683532715,-0.03933340311050415,2,0.165014081649051,-0.1106824710048842,0.03863724040143424,0.9792992050785093,-0.2295338958501816,-0.314643383026123,-0.9210394620895386,-23.47570037841797,-30.85477447509766,-28.35061645507812,-1,2,1739080.303064542,4,1,1676782827.265931,0,0,0,0,0,0,0,0,0,1739083.576373,0,0.1030579,99.0818,1676782831.147426,0,182416158,0,0,1,1676782831.118168,1,0.82,1
1676782832.940322,50,1676782832.290846,34.04867935393418,-117.8139255339918,216.5424,0.07195503,0.06706734,126.65753572697,38.69444021758344,9.426692165159752,8.085035169493873,-9999,1676782832.925548,-22.95740509033203,-30.59642028808594,-28.49203491210938,187.4951782226562,176.0120086669922,17.77700805664062,1739085.973747125,-0.2265777587890625,-0.3519134521484375,-0.9220733642578125,1739085.968768125,0.3021436035633087,0.1913185566663742,-0.092078797519207,1739085.962673125,-150.0937805175781,38.55404663085938,-322.3359985351562,1739085.960056125,0.1166605145040021,-0.2356111667338987,0.3342415665950428,0.2923363149166107,0.1682242602109909,-0.1367791295051575,-0.005692809820175171,0.006412744522094727,0.007213771343231201,2,0.1716664663989676,-0.1060685153818416,0.0375688464912215,0.9787075881820202,-0.2205187380313873,-0.3280527889728546,-0.9185602068901062,-22.95740509033203,-30.59642028808594,-28.49203491210938,-1,2,1739080.303064542,4,1,1676782827.265931,0,0,0,0,0,0,0,0,0,1739083.576373,0,0.1030579,99.0818,1676782831.147426,0,182416158,0,0,1,1676782831.118168,1,0.82,1
1676782832.999713,51,1676782832.290846,34.04867935393418,-117.8139255339918,216.5424,0.07195503,0.06706734,126.65753572697,38.69444021758344,9.426692165159752,8.085035169493873,-9999,1676782832.985343,-22.82395172119141,-31.49643325805664,-27.71426391601562,187.2016143798828,175.7184448242188,17.7773380279541,1739086.033491125,-0.1669921875,-0.3307342529296875,-0.975677490234375,1739086.028513125,0.2260472476482391,-0.1121371909976006,0.1244180947542191,1739086.022705125,-149.9804382324219,37.7216796875,-322.0344848632812,1739086.019800125,0.1229072937546365,-0.2302865728449629,0.3513152731509414,0.2686064541339874,-0.02742929384112358,0.1554206311702728,0.01909387111663818,-0.01020660996437073,-0.03065931797027588,2,0.1802181423061415,-0.1022460073755755,0.0400298863047629,0.9774788203967629,-0.2143148332834244,-0.344133049249649,-0.9141343235969543,-22.82395172119141,-31.49643325805664,-27.71426391601562,-1,2,1739080.303064542,4,1,1676782827.265931,0,0,0,0,0,0,0,0,0,1739083.576373,0,0.1030579,99.0818,1676782831.147426,0,182416158,0,0,1,1676782831.118168,1,0.82,1
1676782833.059746,52,1676782832.290846,34.04867935393418,-117.8139255339918,216.5424,0.07195503,0.06706734,126.65753572697,38.69444021758344,9.426692165159752,8.085035169493873,-9999,1676782833.045051,-23.57256317138672,-31.74192047119141,-27.15325927734375,187.0928192138672,175.6096496582031,17.77767944335938,1739086.093235125,-0.2490234375,-0.3607940673828125,-0.9118804931640625,1739086.088257125,0.06779316067695618,-0.7513003945350647,0.2776255011558533,1739086.082747125,-150.9029541015625,37.91157531738281,-320.9058227539062,1739086.079544125,0.1305731558656311,-0.2589744870859666,0.3557913831668318,0.02372179552912712,-0.7327603697776794,0.1805829405784607,0.01849314570426941,-0.02198332548141479,-0.04882806539535522,2,0.1833948160769743,-0.1153689366828013,0.04087179053966339,0.9753900672958867,-0.2400507777929306,-0.3483322858810425,-0.9061126708984375,-23.57256317138672,-31.74192047119141,-27.15325927734375,-1,2,1739080.303064542,4,1,1676782827.265931,0,0,0,0,0,0,0,0,0,1739083.576373,0,0.1030579,99.0818,1676782831.147426,0,182416158,0,0,1,1676782831.118168,1,0.82,1
1676782833.119344,53,1676782832.290846,34.04867935393418,-117.8139255339918,216.5424,0.07195503,0.06706734,126.65753572697,38.69444021758344,9.426692165159752,8.085035169493873,-9999,1676782833.104898,-25.34732818603516,-31.21430969238281,-25.97869873046875,186.0355377197266,174.5523681640625,17.77804374694824,1739086.152980125,-0.2010040283203125,-0.305419921875,-0.71746826171875,1739086.148001125,0.1206691563129425,1.009382009506226,0.09663919359445572,1739086.142788125,-152.3881225585938,38.5079345703125,-320.1446533203125,1739086.139289125,0.1571970007335826,-0.30296188887055,0.356482135296937,0.1354918777942657,0.5469622015953064,0.1852106153964996,0.1977584660053253,0.05059397220611572,0.1715044975280762,2,0.1863881335520935,-0.1342913865763967,0.04971657369678273,0.9719844022093208,-0.2795914113521576,-0.3489797115325928,-0.8944505453109741,-25.34732818603516,-31.21430969238281,-25.97869873046875,-1,2,1739080.303064542,4,1,1676782827.265931,0,0,0,0,0,0,0,0,0,1739083.576373,0,0.1030579,99.0818,1676782831.147426,0,182416158,0,0,1,1676782831.118168,1,0.82,1
